Código MTE,Período,Estoque,Admissões,Desligamentos,Saldos,Variação Relativa (%),Nome,Latitude,Longitude,Código IBGE,ID Reg. Adm.,Apelido Reg. Adm.
350010,Março/2020,9354.0,305,254,51,0.55,Adamantina,-21.682,-51.0737,3500105,9,Presidente Prudente
350020,Março/2020,650.0,22,9,13,2.04,Adolfo,-21.2325,-49.6451,3500204,13,São José do Rio Preto
350030,Março/2020,7306.0,285,272,13,0.18,Aguaí,-22.0572,-46.9735,3500303,5,Campinas
350040,Março/2020,777.0,17,22,-5,-0.64,Águas da Prata,-21.9319,-46.7176,3500402,5,Campinas
350050,Março/2020,4899.0,117,198,-81,-1.63,Águas de Lindóia,-22.4733,-46.6314,3500501,5,Campinas
350055,Março/2020,1253.0,28,24,4,0.32,Águas de Santa Bárbara,-22.8812,-49.2421,3500550,16,Sorocaba
350060,Março/2020,983.0,38,54,-16,-1.6,Águas de São Pedro,-22.5977,-47.8734,3500600,5,Campinas
350070,Março/2020,7675.0,260,312,-52,-0.67,Agudos,-22.4694,-48.9863,3500709,4,Bauru
350075,Março/2020,668.0,19,18,1,0.15,Alambari,-23.5503,-47.898,3500758,16,Sorocaba
350080,Março/2020,892.0,12,116,-104,-10.44,Alfredo Marcondes,-21.9527,-51.414,3500808,9,Presidente Prudente
350090,Março/2020,742.0,14,13,1,0.13,Altair,-20.5242,-49.0571,3500907,3,Barretos
350100,Março/2020,3125.0,156,76,80,2.63,Altinópolis,-21.0214,-47.3712,3501004,11,Ribeirão Preto
350110,Março/2020,476.0,15,10,5,1.06,Alto Alegre,-21.5811,-50.168,3501103,2,Araçatuba
350115,Março/2020,6392.0,65,124,-59,-0.91,Alumínio,-23.5306,-47.2546,3501152,16,Sorocaba
350120,Março/2020,500.0,11,5,6,1.21,Álvares Florence,-20.3203,-49.9141,3501202,13,São José do Rio Preto
350130,Março/2020,2792.0,64,96,-32,-1.13,Álvares Machado,-22.0764,-51.4722,3501301,9,Presidente Prudente
350140,Março/2020,199.0,5,4,1,0.51,Álvaro de Carvalho,-22.0841,-49.719,3501400,8,Marília
350150,Março/2020,347.0,0,2,-2,-0.57,Alvinlândia,-22.4435,-49.7623,3501509,8,Marília
350160,Março/2020,72293.0,2655,3087,-432,-0.59,Americana,-22.7374,-47.3331,3501608,5,Campinas
350170,Março/2020,10044.0,419,346,73,0.73,Américo Brasiliense,-21.7288,-48.1147,3501707,1,São Carlos
350180,Março/2020,285.0,7,1,6,2.15,Américo de Campos,-20.2985,-49.7359,3501806,13,São José do Rio Preto
350190,Março/2020,24509.0,559,664,-105,-0.43,Amparo,-22.7088,-46.772,3501905,5,Campinas
350200,Março/2020,1100.0,17,23,-6,-0.54,Analândia,-22.1289,-47.6619,3502002,5,Campinas
350210,Março/2020,14688.0,813,593,220,1.52,Andradina,-20.8948,-51.3786,3502101,2,Araçatuba
350220,Março/2020,5456.0,103,107,-4,-0.07,Angatuba,-23.4917,-48.4139,3502200,7,Itapeva
350230,Março/2020,696.0,9,34,-25,-3.47,Anhembi,-22.793000000000006,-48.1336,3502309,16,Sorocaba
350240,Março/2020,217.0,2,4,-2,-0.91,Anhumas,-22.2934,-51.3895,3502408,9,Presidente Prudente
350250,Março/2020,10108.0,240,554,-314,-3.01,Aparecida,-22.8495,-45.2325,3502507,14,São José dos Campos
350260,Março/2020,465.0,9,11,-2,-0.43,Aparecida d'Oeste,-20.4487,-50.8835,3502606,13,São José do Rio Preto
350270,Março/2020,4177.0,105,126,-21,-0.5,Apiaí,-24.5108,-48.8443,3502705,7,Itapeva
350275,Março/2020,9253.0,312,383,-71,-0.76,Araçariguama,-23.4366,-47.0608,3502754,16,Sorocaba
350280,Março/2020,49521.0,2039,2217,-178,-0.36,Araçatuba,-21.2076,-50.4401,3502804,2,Araçatuba
350290,Março/2020,4895.0,156,181,-25,-0.51,Araçoiaba da Serra,-23.5029,-47.6166,3502903,16,Sorocaba
350300,Março/2020,770.0,69,14,55,7.69,Aramina,-20.0882,-47.7873,3503000,6,Franca
350310,Março/2020,835.0,9,17,-8,-0.95,Arandu,-23.1386,-49.0487,3503109,7,Itapeva
350315,Março/2020,107.0,0,0,0,0.0,Arapeí,-22.6717,-44.4441,3503158,14,São José dos Campos
350320,Março/2020,75308.0,2539,3722,-1183,-1.55,Araraquara,-21.7845,-48.178,3503208,1,São Carlos
350330,Março/2020,34138.0,1031,1761,-730,-2.09,Araras,-22.3572,-47.3842,3503307,5,Campinas
350335,Março/2020,141.0,4,9,-5,-3.42,Arco-Íris,-21.7728,-50.466,3503356,8,Marília
350340,Março/2020,1586.0,99,38,61,4.0,Arealva,-22.031,-48.9135,3503406,4,Bauru
350350,Março/2020,589.0,4,6,-2,-0.34,Areias,-22.5786,-44.6992,3503505,14,São José dos Campos
350360,Março/2020,1101.0,27,33,-6,-0.54,Areiópolis,-22.6672,-48.6681,3503604,16,Sorocaba
350370,Março/2020,3047.0,96,136,-40,-1.3,Ariranha,-21.1872,-48.7904,3503703,13,São José do Rio Preto
350380,Março/2020,7685.0,269,335,-66,-0.85,Artur Nogueira,-22.5727,-47.1727,3503802,5,Campinas
350390,Março/2020,25421.0,814,936,-122,-0.48,Arujá,-23.3965,-46.32,3503901,15,São Paulo
350395,Março/2020,49.0,1,1,0,0.0,Aspásia,-20.16,-50.728,3503950,13,São José do Rio Preto
350400,Março/2020,19871.0,643,758,-115,-0.58,Assis,-22.66,-50.4183,3504008,8,Marília
350410,Março/2020,41465.0,1427,2001,-574,-1.37,Atibaia,-23.1171,-46.5563,3504107,5,Campinas
350420,Março/2020,2199.0,76,152,-76,-3.34,Auriflama,-20.6836,-50.5572,3504206,2,Araçatuba
350430,Março/2020,1490.0,93,38,55,3.83,Avaí,-22.1514,-49.3356,3504305,4,Bauru
350440,Março/2020,2179.0,250,62,188,9.44,Avanhandava,-21.4584,-49.9509,3504404,2,Araçatuba
350450,Março/2020,19426.0,667,761,-94,-0.48,Avaré,-23.1067,-48.9251,3504503,16,Sorocaba
350460,Março/2020,2784.0,138,133,5,0.18,Bady Bassitt,-20.9197,-49.4385,3504602,13,São José do Rio Preto
350470,Março/2020,746.0,3,3,0,0.0,Balbinos,-21.8963,-49.3619,3504701,4,Bauru
350480,Março/2020,1270.0,55,32,23,1.84,Bálsamo,-20.7348,-49.5865,3504800,13,São José do Rio Preto
350490,Março/2020,1196.0,26,19,7,0.59,Bananal,-22.6819,-44.3281,3504909,14,São José dos Campos
350500,Março/2020,339.0,42,16,26,8.31,Barão de Antonina,-23.6284,-49.5634,3505005,7,Itapeva
350510,Março/2020,653.0,13,75,-62,-8.67,Barbosa,-21.2657,-49.9518,3505104,2,Araçatuba
350520,Março/2020,8659.0,230,241,-11,-0.13,Bariri,-22.073,-48.7438,3505203,4,Bauru
350530,Março/2020,10242.0,206,273,-67,-0.65,Barra Bonita,-22.4909,-48.5583,3505302,4,Bauru
350535,Março/2020,454.0,6,16,-10,-2.16,Barra do Chapéu,-24.4722,-49.0238,3505351,7,Itapeva
350540,Março/2020,284.0,15,7,8,2.9,Barra do Turvo,-24.759,-48.5013,3505401,10,Registro
350550,Março/2020,30006.0,1010,959,51,0.17,Barretos,-20.5531,-48.5698,3505500,3,Barretos
350560,Março/2020,2987.0,277,550,-273,-8.37,Barrinha,-21.1864,-48.1636,3505609,11,Ribeirão Preto
350570,Março/2020,270469.0,14240,12816,1424,0.53,Barueri,-23.5057,-46.879,3505708,15,São Paulo
350580,Março/2020,6390.0,191,162,29,0.46,Bastos,-21.921,-50.7357,3505807,8,Marília
350590,Março/2020,15932.0,449,510,-61,-0.38,Batatais,-20.8929,-47.5921,3505906,6,Franca
350600,Março/2020,121653.0,5101,5079,22,0.02,Bauru,-22.3246,-49.0871,3506003,4,Bauru
350610,Março/2020,20954.0,833,3363,-2530,-10.77,Bebedouro,-20.9491,-48.4791,3506102,3,Barretos
350620,Março/2020,957.0,96,6,90,10.38,Bento de Abreu,-21.2686,-50.81399999999999,3506201,2,Araçatuba
350630,Março/2020,2308.0,109,50,59,2.62,Bernardino de Campos,-23.0164,-49.4679,3506300,8,Marília
350635,Março/2020,11358.0,347,732,-385,-3.28,Bertioga,-23.8486,-46.1396,3506359,12,Santos
350640,Março/2020,1174.0,65,55,10,0.86,Bilac,-21.404,-50.4746,3506409,2,Araçatuba
350650,Março/2020,29208.0,1389,1810,-421,-1.42,Birigui,-21.291,-50.3432,3506508,2,Araçatuba
350660,Março/2020,2738.0,64,200,-136,-4.73,Biritiba-Mirim,-23.5698,-46.0407,3506607,15,São Paulo
350670,Março/2020,2195.0,109,49,60,2.81,Boa Esperança do Sul,-21.9918,-48.3906,3506706,1,São Carlos
350680,Março/2020,3615.0,301,87,214,6.29,Bocaina,-22.1365,-48.523,3506805,4,Bauru
350690,Março/2020,1905.0,53,32,21,1.11,Bofete,-23.1055,-48.2582,3506904,16,Sorocaba
350700,Março/2020,20164.0,723,613,110,0.55,Boituva,-23.2855,-47.6786,3507001,16,Sorocaba
350710,Março/2020,4876.0,196,192,4,0.08,Bom Jesus dos Perdões,-23.1356,-46.4675,3507100,5,Campinas
350715,Março/2020,448.0,18,17,1,0.22,Bom Sucesso de Itararé,-24.3155,-49.1451,3507159,7,Itapeva
350720,Março/2020,979.0,181,24,157,19.1,Borá,-22.2696,-50.5409,3507209,8,Marília
350730,Março/2020,1460.0,47,38,9,0.62,Boracéia,-22.1926,-48.7808,3507308,4,Bauru
350740,Março/2020,2178.0,99,99,0,0.0,Borborema,-21.6214,-49.0741,3507407,1,São Carlos
350745,Março/2020,756.0,9,21,-12,-1.56,Borebi,-22.5728,-48.9707,3507456,4,Bauru
350750,Março/2020,37819.0,1328,2033,-705,-1.83,Botucatu,-22.8837,-48.4437,3507506,16,Sorocaba
350760,Março/2020,44784.0,1682,2024,-342,-0.76,Bragança Paulista,-22.9527,-46.5419,3507605,5,Campinas
350770,Março/2020,471.0,7,7,0,0.0,Braúna,-21.499,-50.3175,3507704,2,Araçatuba
350775,Março/2020,485.0,1,1,0,0.0,Brejo Alegre,-21.1651,-50.1861,3507753,2,Araçatuba
350780,Março/2020,5590.0,299,198,101,1.84,Brodowski,-20.9845,-47.6572,3507803,11,Ribeirão Preto
350790,Março/2020,7079.0,329,359,-30,-0.42,Brotas,-22.2795,-48.1251,3507902,5,Campinas
350800,Março/2020,3923.0,127,173,-46,-1.16,Buri,-23.7977,-48.5958,3508009,7,Itapeva
350810,Março/2020,3092.0,129,70,59,1.95,Buritama,-21.0661,-50.1475,3508108,2,Araçatuba
350820,Março/2020,1998.0,276,37,239,13.59,Buritizal,-20.1911,-47.7096,3508207,6,Franca
350830,Março/2020,641.0,9,18,-9,-1.38,Cabrália Paulista,-22.4576,-49.3393,3508306,4,Bauru
350840,Março/2020,14929.0,469,525,-56,-0.37,Cabreúva,-23.3053,-47.1362,3508405,5,Campinas
350850,Março/2020,22240.0,584,640,-56,-0.25,Caçapava,-23.0992,-45.7076,3508504,14,São José dos Campos
350860,Março/2020,4369.0,89,81,8,0.18,Cachoeira Paulista,-22.6665,-45.0154,3508603,14,São José dos Campos
350870,Março/2020,2128.0,50,44,6,0.28,Caconde,-21.528,-46.6437,3508702,5,Campinas
350880,Março/2020,3381.0,190,151,39,1.17,Cafelândia,-21.8031,-49.6092,3508801,4,Bauru
350890,Março/2020,133.0,7,7,0,0.0,Caiabu,-22.0127,-51.2394,3508900,9,Presidente Prudente
350900,Março/2020,19807.0,768,979,-211,-1.05,Caieiras,-23.3607,-46.7397,3509007,15,São Paulo
350910,Março/2020,236.0,19,7,12,5.36,Caiuá,-21.8322,-51.9969,3509106,9,Presidente Prudente
350920,Março/2020,41455.0,1735,1819,-84,-0.2,Cajamar,-23.355,-46.8781,3509205,15,São Paulo
350925,Março/2020,5956.0,151,189,-38,-0.63,Cajati,-24.7324,-48.1223,3509254,10,Registro
350930,Março/2020,996.0,26,27,-1,-0.1,Cajobi,-20.8773,-48.8063,3509304,3,Barretos
350940,Março/2020,5051.0,186,136,50,1.0,Cajuru,-21.2749,-47.303,3509403,11,Ribeirão Preto
350945,Março/2020,442.0,6,5,1,0.23,Campina do Monte Alegre,-23.5895,-48.4758,3509452,7,Itapeva
350950,Março/2020,383564.0,14222,18178,-3956,-1.02,Campinas,-22.9053,-47.0659,3509502,5,Campinas
350960,Março/2020,10113.0,188,320,-132,-1.29,Campo Limpo Paulista,-23.2078,-46.7889,3509601,5,Campinas
350970,Março/2020,12783.0,328,696,-368,-2.8,Campos do Jordão,-22.7296,-45.5833,3509700,14,São José dos Campos
350980,Março/2020,486.0,3,17,-14,-2.8,Campos Novos Paulista,-22.602,-49.9987,3509809,8,Marília
350990,Março/2020,1119.0,29,53,-24,-2.1,Cananéia,-25.0144,-47.9341,3509908,10,Registro
350995,Março/2020,632.0,13,39,-26,-3.95,Canas,-22.7003,-45.0521,3509957,14,São José dos Campos
351000,Março/2020,5478.0,120,213,-93,-1.67,Cândido Mota,-22.7471,-50.3873,3510005,8,Marília
351010,Março/2020,472.0,10,15,-5,-1.05,Cândido Rodrigues,-21.3275,-48.6327,3510104,1,São Carlos
351015,Março/2020,278.0,21,6,15,5.7,Canitar,-23.004,-49.7839,3510153,8,Marília
351020,Março/2020,6676.0,193,197,-4,-0.06,Capão Bonito,-24.0113,-48.3482,3510203,7,Itapeva
351030,Março/2020,4323.0,59,169,-110,-2.48,Capela do Alto,-23.4685,-47.7388,3510302,16,Sorocaba
351040,Março/2020,13321.0,435,482,-47,-0.35,Capivari,-22.9951,-47.5071,3510401,5,Campinas
351050,Março/2020,21123.0,839,1171,-332,-1.55,Caraguatatuba,-23.6125,-45.4125,3510500,14,São José dos Campos
351060,Março/2020,31243.0,1368,1448,-80,-0.26,Carapicuíba,-23.5235,-46.8407,3510609,15,São Paulo
351070,Março/2020,993.0,28,25,3,0.3,Cardoso,-20.08,-49.9183,3510708,13,São José do Rio Preto
351080,Março/2020,6668.0,245,204,41,0.62,Casa Branca,-21.7708,-47.0852,3510807,5,Campinas
351090,Março/2020,255.0,1,6,-5,-1.92,Cássia dos Coqueiros,-21.2801,-47.1643,3510906,11,Ribeirão Preto
351100,Março/2020,4121.0,717,77,640,18.39,Castilho,-20.8689,-51.4884,3511003,2,Araçatuba
351110,Março/2020,33853.0,1505,1502,3,0.01,Catanduva,-21.1314,-48.977,3511102,13,São José do Rio Preto
351120,Março/2020,487.0,35,12,23,4.96,Catiguá,-21.0519,-49.0616,3511201,13,São José do Rio Preto
351130,Março/2020,5195.0,463,288,175,3.49,Cedral,-20.9009,-49.2664,3511300,13,São José do Rio Preto
351140,Março/2020,3803.0,108,134,-26,-0.68,Cerqueira César,-23.038,-49.1655,3511409,16,Sorocaba
351150,Março/2020,11741.0,406,433,-27,-0.23,Cerquilho,-23.1665,-47.7459,3511508,16,Sorocaba
351160,Março/2020,3070.0,105,116,-11,-0.36,Cesário Lange,-23.226,-47.9545,3511607,16,Sorocaba
351170,Março/2020,1864.0,65,56,9,0.49,Charqueada,-22.5096,-47.7755,3511706,5,Campinas
351190,Março/2020,2461.0,35,28,7,0.29,Clementina,-21.5604,-50.4525,3511904,2,Araçatuba
351200,Março/2020,5673.0,415,140,275,5.09,Colina,-20.7114,-48.5387,3512001,3,Barretos
351210,Março/2020,3262.0,246,1174,-928,-22.15,Colômbia,-20.1768,-48.6865,3512100,3,Barretos
351220,Março/2020,4767.0,237,307,-70,-1.45,Conchal,-22.3375,-47.1729,3512209,5,Campinas
351230,Março/2020,3329.0,77,92,-15,-0.45,Conchas,-23.0154,-48.0134,3512308,16,Sorocaba
351240,Março/2020,9608.0,316,300,16,0.17,Cordeirópolis,-22.4778,-47.4519,3512407,5,Campinas
351250,Março/2020,751.0,21,17,4,0.54,Coroados,-21.3521,-50.2859,3512506,2,Araçatuba
351260,Março/2020,493.0,17,29,-12,-2.38,Coronel Macedo,-23.6261,-49.31,3512605,7,Itapeva
351270,Março/2020,1114.0,39,33,6,0.54,Corumbataí,-22.2213,-47.6215,3512704,5,Campinas
351280,Março/2020,10271.0,422,383,39,0.38,Cosmópolis,-22.6419,-47.1926,3512803,5,Campinas
351290,Março/2020,2206.0,58,71,-13,-0.59,Cosmorama,-20.4755,-49.7827,3512902,13,São José do Rio Preto
351300,Março/2020,72796.0,2800,3439,-639,-0.87,Cotia,-23.6022,-46.919,3513009,15,São Paulo
351310,Março/2020,8127.0,296,253,43,0.53,Cravinhos,-21.338,-47.7324,3513108,11,Ribeirão Preto
351320,Março/2020,1663.0,40,36,4,0.24,Cristais Paulista,-20.4036,-47.4209,3513207,6,Franca
351330,Março/2020,188.0,4,2,2,1.08,Cruzália,-22.7373,-50.7909,3513306,8,Marília
351340,Março/2020,15236.0,467,363,104,0.69,Cruzeiro,-22.5728,-44.969,3513405,14,São José dos Campos
351350,Março/2020,24962.0,646,691,-45,-0.18,Cubatão,-23.8911,-46.424,3513504,12,Santos
351360,Março/2020,2240.0,46,42,4,0.18,Cunha,-23.0731,-44.9576,3513603,14,São José dos Campos
351370,Março/2020,9938.0,291,215,76,0.77,Descalvado,-21.9002,-47.6181,3513702,1,São Carlos
351380,Março/2020,82602.0,2339,3467,-1128,-1.35,Diadema,-23.6813,-46.6205,3513801,15,São Paulo
351385,Março/2020,166.0,0,0,0,0.0,Dirce Reis,-20.4642,-50.6073,3513850,13,São José do Rio Preto
351390,Março/2020,1882.0,49,44,5,0.27,Divinolândia,-21.6637,-46.7361,3513900,5,Campinas
351400,Março/2020,891.0,223,51,172,23.92,Dobrada,-21.5155,-48.3935,3514007,1,São Carlos
351410,Março/2020,5346.0,306,163,143,2.75,Dois Córregos,-22.3673,-48.3819,3514106,4,Bauru
351420,Março/2020,94.0,4,17,-13,-12.15,Dolcinópolis,-20.124,-50.5149,3514205,13,São José do Rio Preto
351430,Março/2020,2849.0,65,60,5,0.18,Dourado,-22.1044,-48.3178,3514304,1,São Carlos
351440,Março/2020,10957.0,600,517,83,0.76,Dracena,-21.4843,-51.535,3514403,9,Presidente Prudente
351450,Março/2020,2340.0,42,114,-72,-2.99,Duartina,-22.4146,-49.4084,3514502,4,Bauru
351460,Março/2020,2053.0,40,73,-33,-1.58,Dumont,-21.2324,-47.9756,3514601,11,Ribeirão Preto
351470,Março/2020,631.0,10,8,2,0.32,Echaporã,-22.4326,-50.2038,3514700,8,Marília
351480,Março/2020,1538.0,17,26,-9,-0.58,Eldorado,-24.5281,-48.1141,3514809,10,Registro
351490,Março/2020,4904.0,309,101,208,4.43,Elias Fausto,-23.0428,-47.3682,3514908,5,Campinas
351492,Março/2020,576.0,57,9,48,9.09,Elisiário,-21.1678,-49.1146,3514924,13,São José do Rio Preto
351495,Março/2020,133.0,3,11,-8,-5.67,Embaúba,-20.9796,-48.8325,3514957,3,Barretos
351500,Março/2020,40672.0,1381,1495,-114,-0.28,Embu das Artes,-23.6437,-46.8579,3515004,15,São Paulo
351510,Março/2020,7068.0,207,208,-1,-0.01,Embu-Guaçu,-23.8297,-46.8136,3515103,15,São Paulo
351512,Março/2020,138.0,5,5,0,0.0,Emilianópolis,-21.8314,-51.4832,3515129,9,Presidente Prudente
351515,Março/2020,3667.0,171,162,9,0.25,Engenheiro Coelho,-22.4836,-47.21100000000001,3515152,5,Campinas
351518,Março/2020,12479.0,567,315,252,2.06,Espírito Santo do Pinhal,-22.1909,-46.7477,3515186,5,Campinas
351519,Março/2020,546.0,10,9,1,0.18,Espírito Santo do Turvo,-22.6925,-49.4341,3515194,8,Marília
351520,Março/2020,3045.0,83,128,-45,-1.46,Estrela d'Oeste,-20.2875,-50.4049,3515202,13,São José do Rio Preto
351530,Março/2020,93.0,0,1,-1,-1.06,Estrela do Norte,-22.4859,-51.6632,3515301,9,Presidente Prudente
351535,Março/2020,327.0,17,8,9,2.83,Euclides da Cunha Paulista,-22.5545,-52.5928,3515350,9,Presidente Prudente
351540,Março/2020,3239.0,100,116,-16,-0.49,Fartura,-23.3916,-49.5124,3515400,7,Itapeva
351550,Março/2020,16209.0,960,673,287,1.8,Fernandópolis,-20.2806,-50.2471,3515509,13,São José do Rio Preto
351560,Março/2020,1411.0,59,49,10,0.71,Fernando Prestes,-21.2661,-48.6874,3515608,1,São Carlos
351565,Março/2020,181.0,6,7,-1,-0.55,Fernão,-22.3607,-49.5187,3515657,8,Marília
351570,Março/2020,17498.0,579,618,-39,-0.22,Ferraz de Vasconcelos,-23.5411,-46.371,3515707,15,São Paulo
351580,Março/2020,105.0,0,0,0,0.0,Flora Rica,-21.6727,-51.3821,3515806,9,Presidente Prudente
351590,Março/2020,279.0,9,25,-16,-5.42,Floreal,-20.6752,-50.1513,3515905,13,São José do Rio Preto
351600,Março/2020,1088.0,59,80,-21,-1.89,Flórida Paulista,-21.6127,-51.1724,3516002,9,Presidente Prudente
351610,Março/2020,235.0,0,8,-8,-3.29,Florínia,-22.868,-50.6814,3516101,8,Marília
351620,Março/2020,89466.0,3836,4648,-812,-0.9,Franca,-20.5352,-47.4039,3516200,6,Franca
351630,Março/2020,6764.0,265,368,-103,-1.5,Francisco Morato,-23.2792,-46.7448,3516309,15,São Paulo
351640,Março/2020,13709.0,538,790,-252,-1.81,Franco da Rocha,-23.3229,-46.729,3516408,15,São Paulo
351650,Março/2020,984.0,45,24,21,2.18,Gabriel Monteiro,-21.5294,-50.5573,3516507,2,Araçatuba
351660,Março/2020,1109.0,24,25,-1,-0.09,Gália,-22.2918,-49.5504,3516606,8,Marília
351670,Março/2020,8837.0,288,417,-129,-1.44,Garça,-22.2125,-49.6546,3516705,8,Marília
351680,Março/2020,216.0,69,27,42,24.14,Gastão Vidigal,-20.7948,-50.1912,3516804,2,Araçatuba
351685,Março/2020,4037.0,23,55,-32,-0.79,Gavião Peixoto,-21.8367,-48.4957,3516853,1,São Carlos
351690,Março/2020,1367.0,64,44,20,1.48,General Salgado,-20.6485,-50.364,3516903,2,Araçatuba
351700,Março/2020,874.0,10,25,-15,-1.69,Getulina,-21.7961,-49.9312,3517000,4,Bauru
351710,Março/2020,858.0,11,21,-10,-1.15,Glicério,-21.3812,-50.2123,3517109,2,Araçatuba
351720,Março/2020,1201.0,78,22,56,4.89,Guaiçara,-21.6195,-49.8013,3517208,4,Bauru
351730,Março/2020,369.0,3,13,-10,-2.64,Guaimbê,-21.9091,-49.8986,3517307,4,Bauru
351740,Março/2020,14346.0,732,345,387,2.77,Guaíra,-20.3196,-48.312,3517406,3,Barretos
351750,Março/2020,4475.0,293,205,88,2.01,Guapiaçu,-20.7959,-49.2172,3517505,13,São José do Rio Preto
351760,Março/2020,2140.0,66,54,12,0.56,Guapiara,-24.1892,-48.5295,3517604,7,Itapeva
351770,Março/2020,3143.0,256,132,124,4.11,Guará,-20.4302,-47.8236,3517703,6,Franca
351780,Março/2020,1375.0,19,23,-4,-0.29,Guaraçaí,-21.0292,-51.2119,3517802,2,Araçatuba
351790,Março/2020,1886.0,83,23,60,3.29,Guaraci,-20.4977,-48.9391,3517901,3,Barretos
351800,Março/2020,142.0,3,7,-4,-2.74,Guarani d'Oeste,-20.0746,-50.3411,3518008,13,São José do Rio Preto
351810,Março/2020,827.0,15,18,-3,-0.36,Guarantã,-21.8942,-49.5914,3518107,4,Bauru
351820,Março/2020,6768.0,219,201,18,0.27,Guararapes,-21.2544,-50.6453,3518206,2,Araçatuba
351830,Março/2020,7276.0,230,393,-163,-2.19,Guararema,-23.4112,-46.0369,3518305,15,São Paulo
351840,Março/2020,28225.0,705,1138,-433,-1.51,Guaratinguetá,-22.8075,-45.1938,3518404,14,São José dos Campos
351850,Março/2020,2311.0,29,63,-34,-1.45,Guareí,-23.3714,-48.1837,3518503,16,Sorocaba
351860,Março/2020,7109.0,549,416,133,1.91,Guariba,-21.3594,-48.2316,3518602,11,Ribeirão Preto
351870,Março/2020,40471.0,754,1404,-650,-1.58,Guarujá,-23.9888,-46.258,3518701,12,Santos
351880,Março/2020,324776.0,10737,14278,-3541,-1.08,Guarulhos,-23.4538,-46.5333,3518800,15,São Paulo
351885,Março/2020,1095.0,45,46,-1,-0.09,Guatapará,-21.4944,-48.0356,3518859,11,Ribeirão Preto
351890,Março/2020,374.0,13,47,-34,-8.33,Guzolândia,-20.6467,-50.6645,3518909,2,Araçatuba
351900,Março/2020,1320.0,36,35,1,0.08,Herculândia,-22.0038,-50.3907,3519006,8,Marília
351905,Março/2020,9599.0,483,1079,-596,-5.85,Holambra,-22.6405,-47.0487,3519055,5,Campinas
351907,Março/2020,43002.0,1403,1658,-255,-0.59,Hortolândia,-22.8529,-47.2143,3519071,5,Campinas
351910,Março/2020,2794.0,166,93,73,2.68,Iacanga,-21.8896,-49.03100000000001,3519105,4,Bauru
351920,Março/2020,741.0,23,29,-6,-0.8,Iacri,-21.8572,-50.6932,3519204,8,Marília
351925,Março/2020,1462.0,23,26,-3,-0.2,Iaras,-22.8682,-49.1634,3519253,16,Sorocaba
351930,Março/2020,6129.0,189,317,-128,-2.05,Ibaté,-21.9584,-47.9882,3519303,1,São Carlos
351940,Março/2020,1769.0,111,68,43,2.49,Ibirá,-21.083,-49.2448,3519402,13,São José do Rio Preto
351950,Março/2020,644.0,119,58,61,10.46,Ibirarema,-22.8185,-50.0739,3519501,8,Marília
351960,Março/2020,15398.0,569,789,-220,-1.41,Ibitinga,-21.7562,-48.8319,3519600,1,São Carlos
351970,Março/2020,14241.0,276,339,-63,-0.44,Ibiúna,-23.6596,-47.223,3519709,16,Sorocaba
351980,Março/2020,1137.0,165,25,140,14.04,Icém,-20.3391,-49.1915,3519808,13,São José do Rio Preto
351990,Março/2020,670.0,26,17,9,1.36,Iepê,-22.6602,-51.0779,3519907,9,Presidente Prudente
352000,Março/2020,1705.0,40,44,-4,-0.23,Igaraçu do Tietê,-22.509,-48.5597,3520004,4,Bauru
352010,Março/2020,5831.0,462,367,95,1.66,Igarapava,-20.0407,-47.7466,3520103,6,Franca
352020,Março/2020,1186.0,15,36,-21,-1.74,Igaratá,-23.2037,-46.157,3520202,14,São José dos Campos
352030,Março/2020,2895.0,62,58,4,0.14,Iguape,-24.699,-47.5537,3520301,10,Registro
352040,Março/2020,6676.0,215,475,-260,-3.75,Ilhabela,-23.7785,-45.3552,3520400,14,São José dos Campos
352042,Março/2020,1079.0,17,59,-42,-3.75,Ilha Comprida,-24.7307,-47.5383,3520426,10,Registro
352044,Março/2020,3612.0,118,150,-32,-0.88,Ilha Solteira,-20.4326,-51.3426,3520442,2,Araçatuba
352050,Março/2020,74288.0,2946,3190,-244,-0.33,Indaiatuba,-23.0816,-47.2101,3520509,5,Campinas
352060,Março/2020,392.0,12,5,7,1.82,Indiana,-22.1738,-51.2555,3520608,9,Presidente Prudente
352070,Março/2020,292.0,18,9,9,3.18,Indiaporã,-19.979,-50.2909,3520707,13,São José do Rio Preto
352080,Março/2020,659.0,5,11,-6,-0.9,Inúbia Paulista,-21.7695,-50.9633,3520806,9,Presidente Prudente
352090,Março/2020,3126.0,193,82,111,3.68,Ipaussu,-23.0575,-49.6279,3520905,8,Marília
352100,Março/2020,4538.0,211,230,-19,-0.42,Iperó,-23.3513,-47.6927,3521002,16,Sorocaba
352110,Março/2020,1953.0,43,43,0,0.0,Ipeúna,-22.4355,-47.7151,3521101,5,Campinas
352115,Março/2020,995.0,60,24,36,3.75,Ipiguá,-20.6557,-49.3842,3521150,13,São José do Rio Preto
352120,Março/2020,195.0,15,7,8,4.28,Iporanga,-24.5847,-48.5971,3521200,7,Itapeva
352130,Março/2020,1959.0,140,118,22,1.14,Ipuã,-20.4438,-48.0129,3521309,6,Franca
352140,Março/2020,7428.0,329,227,102,1.39,Iracemápolis,-22.5832,-47.523,3521408,5,Campinas
352150,Março/2020,827.0,49,28,21,2.61,Irapuã,-21.2768,-49.4164,3521507,13,São José do Rio Preto
352160,Março/2020,430.0,5,0,5,1.18,Irapuru,-21.5684,-51.3472,3521606,9,Presidente Prudente
352170,Março/2020,2287.0,61,208,-147,-6.04,Itaberá,-23.8638,-49.14,3521705,7,Itapeva
352180,Março/2020,3910.0,101,246,-145,-3.58,Itaí,-23.4213,-49.092,3521804,7,Itapeva
352190,Março/2020,3122.0,93,89,4,0.13,Itajobi,-21.3123,-49.0629,3521903,13,São José do Rio Preto
352200,Março/2020,610.0,10,14,-4,-0.65,Itaju,-21.9857,-48.8116,3522000,4,Bauru
352210,Março/2020,10186.0,217,478,-261,-2.5,Itanhaém,-24.1736,-46.788,3522109,12,Santos
352215,Março/2020,301.0,3,3,0,0.0,Itaóca,-24.6393,-48.8413,3522158,7,Itapeva
352220,Março/2020,20238.0,702,875,-173,-0.85,Itapecerica da Serra,-23.7161,-46.8572,3522208,15,São Paulo
352230,Março/2020,32916.0,1085,1260,-175,-0.53,Itapetininga,-23.5886,-48.0483,3522307,16,Sorocaba
352240,Março/2020,17180.0,524,660,-136,-0.79,Itapeva,-23.9788,-48.8764,3522406,7,Itapeva
352250,Março/2020,30792.0,868,1091,-223,-0.72,Itapevi,-23.5488,-46.9327,3522505,15,São Paulo
352260,Março/2020,21992.0,698,797,-99,-0.45,Itapira,-22.4357,-46.8224,3522604,5,Campinas
352265,Março/2020,521.0,7,11,-4,-0.76,Itapirapuã Paulista,-24.572,-49.1661,3522653,7,Itapeva
352270,Março/2020,10001.0,336,275,61,0.61,Itápolis,-21.5942,-48.8149,3522703,1,São Carlos
352280,Março/2020,1523.0,35,84,-49,-3.12,Itaporanga,-23.7043,-49.4819,3522802,7,Itapeva
352290,Março/2020,4262.0,211,144,67,1.6,Itapuí,-22.2324,-48.7197,3522901,4,Bauru
352300,Março/2020,437.0,21,15,6,1.39,Itapura,-20.6419,-51.5063,3523008,2,Araçatuba
352310,Março/2020,40227.0,1590,2411,-821,-2.0,Itaquaquecetuba,-23.4835,-46.3457,3523107,15,São Paulo
352320,Março/2020,7044.0,198,240,-42,-0.59,Itararé,-24.1085,-49.3352,3523206,7,Itapeva
352330,Março/2020,1173.0,23,36,-13,-1.1,Itariri,-24.2834,-47.1736,3523305,10,Registro
352340,Março/2020,35938.0,1401,1559,-158,-0.44,Itatiba,-23.0035,-46.8464,3523404,5,Campinas
352350,Março/2020,2402.0,52,78,-26,-1.07,Itatinga,-23.1047,-48.6157,3523503,16,Sorocaba
352360,Março/2020,4581.0,189,267,-78,-1.67,Itirapina,-22.2562,-47.8166,3523602,5,Campinas
352370,Março/2020,716.0,1,1,0,0.0,Itirapuã,-20.6416,-47.2194,3523701,6,Franca
352380,Março/2020,733.0,15,25,-10,-1.35,Itobi,-21.7309,-46.9743,3523800,5,Campinas
352390,Março/2020,51271.0,1705,1943,-238,-0.46,Itu,-23.2544,-47.2927,3523909,16,Sorocaba
352400,Março/2020,28341.0,1244,1684,-440,-1.53,Itupeva,-23.1526,-47.0593,3524006,5,Campinas
352410,Março/2020,6347.0,212,170,42,0.67,Ituverava,-20.3355,-47.7902,3524105,6,Franca
352420,Março/2020,708.0,142,12,130,22.49,Jaborandi,-20.6884,-48.4112,3524204,3,Barretos
352430,Março/2020,20920.0,881,678,203,0.98,Jaboticabal,-21.252,-48.3252,3524303,11,Ribeirão Preto
352440,Março/2020,45110.0,1354,2199,-845,-1.84,Jacareí,-23.2983,-45.9658,3524402,14,São José dos Campos
352450,Março/2020,2951.0,82,73,9,0.31,Jaci,-20.8805,-49.5797,3524501,13,São José do Rio Preto
352460,Março/2020,2638.0,64,52,12,0.46,Jacupiranga,-24.6963,-48.0064,3524600,10,Registro
352470,Março/2020,32212.0,979,1169,-190,-0.59,Jaguariúna,-22.7037,-46.9851,3524709,5,Campinas
352480,Março/2020,10505.0,318,302,16,0.15,Jales,-20.2672,-50.5494,3524808,13,São José do Rio Preto
352490,Março/2020,3016.0,100,106,-6,-0.2,Jambeiro,-23.2522,-45.6942,3524907,14,São José dos Campos
352500,Março/2020,16963.0,639,622,17,0.1,Jandira,-23.5275,-46.9023,3525003,15,São Paulo
352510,Março/2020,9284.0,337,304,33,0.36,Jardinópolis,-21.0176,-47.7606,3525102,11,Ribeirão Preto
352520,Março/2020,9226.0,298,438,-140,-1.49,Jarinu,-23.1039,-46.728,3525201,5,Campinas
352530,Março/2020,34610.0,1326,1880,-554,-1.58,Jaú,-22.2936,-48.5592,3525300,4,Bauru
352540,Março/2020,636.0,79,25,54,9.28,Jeriquara,-20.3116,-47.5918,3525409,6,Franca
352550,Março/2020,1955.0,67,115,-48,-2.4,Joanópolis,-22.927,-46.2741,3525508,5,Campinas
352560,Março/2020,332.0,5,6,-1,-0.3,João Ramalho,-22.2473,-50.7694,3525607,8,Marília
352570,Março/2020,9561.0,393,438,-45,-0.47,José Bonifácio,-21.0551,-49.6892,3525706,13,São José do Rio Preto
352580,Março/2020,193.0,2,2,0,0.0,Júlio Mesquita,-22.0112,-49.7873,3525805,8,Marília
352585,Março/2020,1285.0,46,32,14,1.1,Jumirim,-23.0884,-47.7868,3525854,16,Sorocaba
352590,Março/2020,162293.0,6131,7212,-1081,-0.66,Jundiaí,-23.1852,-46.8974,3525904,5,Campinas
352600,Março/2020,5060.0,130,118,12,0.24,Junqueirópolis,-21.5103,-51.4342,3526001,9,Presidente Prudente
352610,Março/2020,1637.0,26,99,-73,-4.27,Juquiá,-24.3101,-47.6426,3526100,10,Registro
352620,Março/2020,3664.0,206,164,42,1.16,Juquitiba,-23.9244,-47.0653,3526209,15,São Paulo
352630,Março/2020,711.0,7,9,-2,-0.28,Lagoinha,-23.0846,-45.1944,3526308,14,São José dos Campos
352640,Março/2020,8951.0,465,294,171,1.95,Laranjal Paulista,-23.0506,-47.8375,3526407,16,Sorocaba
352650,Março/2020,354.0,8,9,-1,-0.28,Lavínia,-21.1639,-51.0412,3526506,2,Araçatuba
352660,Março/2020,476.0,4,12,-8,-1.65,Lavrinhas,-22.57,-44.9024,3526605,14,São José dos Campos
352670,Março/2020,20137.0,823,664,159,0.8,Leme,-22.1809,-47.3841,3526704,5,Campinas
352680,Março/2020,20436.0,1045,830,215,1.06,Lençóis Paulista,-22.6027,-48.8037,3526803,4,Bauru
352690,Março/2020,78117.0,2604,3003,-399,-0.51,Limeira,-22.566,-47.397,3526902,5,Campinas
352700,Março/2020,1665.0,47,54,-7,-0.42,Lindóia,-22.5226,-46.65,3527009,5,Campinas
352710,Março/2020,24676.0,859,650,209,0.85,Lins,-21.6718,-49.7526,3527108,4,Bauru
352720,Março/2020,15120.0,517,558,-41,-0.27,Lorena,-22.7334,-45.1197,3527207,14,São José dos Campos
352725,Março/2020,80.0,0,0,0,0.0,Lourdes,-20.966,-50.2263,3527256,2,Araçatuba
352730,Março/2020,16095.0,677,512,165,1.04,Louveira,-23.0856,-46.9484,3527306,5,Campinas
352740,Março/2020,9109.0,568,394,174,1.95,Lucélia,-21.7182,-51.0215,3527405,9,Presidente Prudente
352750,Março/2020,1052.0,4,3,1,0.1,Lucianópolis,-22.4294,-49.522,3527504,4,Bauru
352760,Março/2020,6150.0,536,706,-170,-2.69,Luís Antônio,-21.55,-47.7801,3527603,11,Ribeirão Preto
352770,Março/2020,580.0,57,8,49,9.23,Luiziânia,-21.6737,-50.3294,3527702,2,Araçatuba
352780,Março/2020,550.0,1,4,-3,-0.54,Lupércio,-22.4146,-49.81800000000001,3527801,8,Marília
352790,Março/2020,454.0,1,0,1,0.22,Lutécia,-22.3384,-50.394,3527900,8,Marília
352800,Março/2020,3596.0,88,142,-54,-1.48,Macatuba,-22.5002,-48.7102,3528007,4,Bauru
352810,Março/2020,1549.0,86,36,50,3.34,Macaubal,-20.8022,-49.9687,3528106,13,São José do Rio Preto
352820,Março/2020,286.0,10,8,2,0.7,Macedônia,-20.1444,-50.1973,3528205,13,São José do Rio Preto
352830,Março/2020,488.0,27,11,16,3.39,Magda,-20.6445,-50.2305,3528304,13,São José do Rio Preto
352840,Março/2020,9394.0,310,285,25,0.27,Mairinque,-23.5398,-47.185,3528403,16,Sorocaba
352850,Março/2020,13354.0,519,678,-159,-1.18,Mairiporã,-23.3171,-46.5897,3528502,15,São Paulo
352860,Março/2020,1486.0,36,38,-2,-0.13,Manduri,-23.0056,-49.3202,3528601,16,Sorocaba
352870,Março/2020,303.0,1,3,-2,-0.66,Marabá Paulista,-22.1068,-51.9617,3528700,9,Presidente Prudente
352880,Março/2020,2815.0,74,138,-64,-2.22,Maracaí,-22.6149,-50.6713,3528809,8,Marília
352885,Março/2020,1671.0,212,59,153,10.08,Marapoama,-21.2587,-49.13,3528858,13,São José do Rio Preto
352890,Março/2020,136.0,2,6,-4,-2.86,Mariápolis,-21.7959,-51.1824,3528908,9,Presidente Prudente
352900,Março/2020,65201.0,2372,2591,-219,-0.33,Marília,-22.2171,-49.9501,3529005,8,Marília
352910,Março/2020,147.0,0,1,-1,-0.68,Marinópolis,-20.4389,-50.8254,3529104,13,São José do Rio Preto
352920,Março/2020,2151.0,39,53,-14,-0.65,Martinópolis,-22.1462,-51.1709,3529203,9,Presidente Prudente
352930,Março/2020,26054.0,903,951,-48,-0.18,Matão,-21.6025,-48.364,3529302,1,São Carlos
352940,Março/2020,61286.0,1985,2456,-471,-0.76,Mauá,-23.6677,-46.4613,3529401,15,São Paulo
352950,Março/2020,2621.0,229,34,195,8.04,Mendonça,-21.1757,-49.5791,3529500,13,São José do Rio Preto
352960,Março/2020,1912.0,56,25,31,1.65,Meridiano,-20.3579,-50.1811,3529609,13,São José do Rio Preto
352965,Março/2020,60.0,0,3,-3,-4.76,Mesópolis,-19.9684,-50.6326,3529658,13,São José do Rio Preto
352970,Março/2020,2080.0,97,206,-109,-4.98,Miguelópolis,-20.1796,-48.03100000000001,3529708,6,Franca
352980,Março/2020,1280.0,32,69,-37,-2.81,Mineiros do Tietê,-22.412,-48.451,3529807,4,Bauru
352990,Março/2020,2507.0,29,43,-14,-0.56,Miracatu,-24.2766,-47.4625,3529906,10,Registro
353000,Março/2020,242.0,3,5,-2,-0.82,Mira Estrela,-19.9789,-50.139,3530003,13,São José do Rio Preto
353010,Março/2020,3337.0,243,119,124,3.86,Mirandópolis,-21.1313,-51.1035,3530102,2,Araçatuba
353020,Março/2020,2930.0,43,35,8,0.27,Mirante do Paranapanema,-22.2904,-51.9084,3530201,9,Presidente Prudente
353030,Março/2020,14840.0,563,621,-58,-0.39,Mirassol,-20.8169,-49.5206,3530300,13,São José do Rio Preto
353040,Março/2020,767.0,16,17,-1,-0.13,Mirassolândia,-20.6179,-49.4617,3530409,13,São José do Rio Preto
353050,Março/2020,16922.0,349,370,-21,-0.12,Mococa,-21.4647,-47.0024,3530508,5,Campinas
353060,Março/2020,98029.0,3729,5434,-1705,-1.71,Mogi das Cruzes,-23.5208,-46.1854,3530607,15,São Paulo
353070,Março/2020,35457.0,1651,2823,-1172,-3.2,Mogi Guaçu,-22.3675,-46.9428,3530706,5,Campinas
353080,Março/2020,28900.0,936,915,21,0.07,Mogi Mirim,-22.4332,-46.9532,3530805,5,Campinas
353090,Março/2020,541.0,18,14,4,0.74,Mombuca,-22.9285,-47.559,3530904,5,Campinas
353100,Março/2020,608.0,3,79,-76,-11.11,Monções,-20.8509,-50.0975,3531001,13,São José do Rio Preto
353110,Março/2020,6389.0,166,299,-133,-2.04,Mongaguá,-24.0809,-46.6265,3531100,12,Santos
353120,Março/2020,1007.0,39,56,-17,-1.66,Monte Alegre do Sul,-22.6817,-46.681,3531209,5,Campinas
353130,Março/2020,13034.0,432,434,-2,-0.02,Monte Alto,-21.2655,-48.4971,3531308,11,Ribeirão Preto
353140,Março/2020,3794.0,249,442,-193,-4.84,Monte Aprazível,-20.768,-49.7184,3531407,13,São José do Rio Preto
353150,Março/2020,4253.0,93,56,37,0.88,Monte Azul Paulista,-20.9065,-48.6387,3531506,3,Barretos
353160,Março/2020,470.0,129,15,114,32.02,Monte Castelo,-21.2981,-51.5679,3531605,9,Presidente Prudente
353170,Março/2020,413.0,16,9,7,1.72,Monteiro Lobato,-22.9544,-45.8407,3531704,14,São José dos Campos
353180,Março/2020,10454.0,394,592,-198,-1.86,Monte Mor,-22.945,-47.3122,3531803,5,Campinas
353190,Março/2020,7032.0,744,155,589,9.14,Morro Agudo,-20.7288,-48.0581,3531902,6,Franca
353200,Março/2020,4489.0,219,136,83,1.88,Morungaba,-22.8811,-46.7896,3532009,5,Campinas
353205,Março/2020,668.0,23,21,2,0.3,Motuca,-21.5103,-48.1538,3532058,1,São Carlos
353210,Março/2020,183.0,5,4,1,0.55,Murutinga do Sul,-20.9908,-51.2774,3532108,2,Araçatuba
353215,Março/2020,167.0,6,19,-13,-7.22,Nantes,-22.6156,-51.24,3532157,9,Presidente Prudente
353220,Março/2020,717.0,27,20,7,0.99,Narandiba,-22.4057,-51.5274,3532207,9,Presidente Prudente
353230,Março/2020,684.0,3,8,-5,-0.73,Natividade da Serra,-23.3707,-45.4468,3532306,14,São José dos Campos
353240,Março/2020,2261.0,151,156,-5,-0.22,Nazaré Paulista,-23.1747,-46.3983,3532405,5,Campinas
353250,Março/2020,1493.0,51,45,6,0.4,Neves Paulista,-20.843000000000004,-49.6358,3532504,13,São José do Rio Preto
353260,Março/2020,1740.0,35,56,-21,-1.19,Nhandeara,-20.6945,-50.0436,3532603,13,São José do Rio Preto
353270,Março/2020,437.0,15,16,-1,-0.23,Nipoã,-20.9114,-49.7833,3532702,13,São José do Rio Preto
353280,Março/2020,1365.0,29,66,-37,-2.64,Nova Aliança,-21.0156,-49.4986,3532801,13,São José do Rio Preto
353282,Março/2020,1718.0,31,62,-31,-1.77,Nova Campina,-24.1224,-48.9022,3532827,7,Itapeva
353284,Março/2020,58.0,3,1,2,3.57,Nova Canaã Paulista,-20.3836,-50.9483,3532843,13,São José do Rio Preto
353286,Março/2020,64.0,3,2,1,1.59,Nova Castilho,-20.7615,-50.3477,3532868,2,Araçatuba
353290,Março/2020,2996.0,44,39,5,0.17,Nova Europa,-21.7765,-48.5705,3532900,1,São Carlos
353300,Março/2020,3284.0,157,139,18,0.55,Nova Granada,-20.5321,-49.3123,3533007,13,São José do Rio Preto
353310,Março/2020,64.0,13,0,13,25.49,Nova Guataporanga,-21.332,-51.6447,3533106,9,Presidente Prudente
353320,Março/2020,1648.0,152,28,124,8.14,Nova Independência,-21.1026,-51.4905,3533205,2,Araçatuba
353325,Março/2020,468.0,233,18,215,84.98,Novais,-20.9893,-48.9141,3533254,13,São José do Rio Preto
353330,Março/2020,133.0,1,7,-6,-4.32,Nova Luzitânia,-20.856,-50.2617,3533304,2,Araçatuba
353340,Março/2020,19386.0,721,1007,-286,-1.45,Nova Odessa,-22.7832,-47.2941,3533403,5,Campinas
353350,Março/2020,10691.0,903,285,618,6.14,Novo Horizonte,-21.4651,-49.2234,3533502,13,São José do Rio Preto
353360,Março/2020,3178.0,148,52,96,3.11,Nuporanga,-20.7296,-47.7429,3533601,6,Franca
353370,Março/2020,633.0,10,7,3,0.48,Ocauçu,-22.438,-49.922,3533700,8,Marília
353380,Março/2020,164.0,0,5,-5,-2.96,Óleo,-22.9435,-49.3419,3533809,8,Marília
353390,Março/2020,15333.0,782,662,120,0.79,Olímpia,-20.7366,-48.9106,3533908,3,Barretos
353400,Março/2020,2188.0,60,56,4,0.18,Onda Verde,-20.6042,-49.2929,3534005,13,São José do Rio Preto
353410,Março/2020,619.0,13,15,-2,-0.32,Oriente,-22.1549,-50.0971,3534104,8,Marília
353420,Março/2020,3168.0,348,41,307,10.73,Orindiúva,-20.1861,-49.3464,3534203,13,São José do Rio Preto
353430,Março/2020,10939.0,509,677,-168,-1.51,Orlândia,-20.7169,-47.8852,3534302,6,Franca
353440,Março/2020,153326.0,5349,7244,-1895,-1.22,Osasco,-23.5324,-46.7916,3534401,15,São Paulo
353450,Março/2020,206.0,4,11,-7,-3.29,Oscar Bressane,-22.3149,-50.2811,3534500,8,Marília
353460,Março/2020,6862.0,189,217,-28,-0.41,Osvaldo Cruz,-21.7968,-50.8793,3534609,9,Presidente Prudente
353470,Março/2020,24646.0,734,880,-146,-0.59,Ourinhos,-22.9797,-49.8697,3534708,8,Marília
353475,Março/2020,2034.0,262,244,18,0.89,Ouroeste,-20.0061,-50.3768,3534757,13,São José do Rio Preto
353480,Março/2020,646.0,231,5,226,53.81,Ouro Verde,-21.4872,-51.7024,3534807,9,Presidente Prudente
353490,Março/2020,1694.0,51,27,24,1.44,Pacaembu,-21.5627,-51.2654,3534906,9,Presidente Prudente
353500,Março/2020,3717.0,96,106,-10,-0.27,Palestina,-20.39,-49.4309,3535002,13,São José do Rio Preto
353510,Março/2020,968.0,24,22,2,0.21,Palmares Paulista,-21.0854,-48.8037,3535101,13,São José do Rio Preto
353520,Março/2020,833.0,27,16,11,1.34,Palmeira d'Oeste,-20.4148,-50.7632,3535200,13,São José do Rio Preto
353530,Março/2020,3638.0,104,97,7,0.19,Palmital,-22.7858,-50.218,3535309,8,Marília
353540,Março/2020,2664.0,93,91,2,0.08,Panorama,-21.354,-51.8562,3535408,9,Presidente Prudente
353550,Março/2020,11469.0,263,200,63,0.55,Paraguaçu Paulista,-22.4114,-50.5732,3535507,8,Marília
353560,Março/2020,1873.0,53,63,-10,-0.53,Paraibuna,-23.3872,-45.6639,3535606,14,São José dos Campos
353570,Março/2020,1934.0,250,23,227,13.3,Paraíso,-21.0159,-48.7761,3535705,13,São José do Rio Preto
353580,Março/2020,3965.0,158,172,-14,-0.35,Paranapanema,-23.3862,-48.7214,3535804,7,Itapeva
353590,Março/2020,584.0,10,2,8,1.39,Paranapuã,-20.1048,-50.5886,3535903,13,São José do Rio Preto
353600,Março/2020,2982.0,187,80,107,3.72,Parapuã,-21.7792,-50.7949,3536000,8,Marília
353610,Março/2020,2172.0,31,89,-58,-2.6,Pardinho,-23.0841,-48.3679,3536109,16,Sorocaba
353620,Março/2020,3072.0,52,76,-24,-0.78,Pariquera-Açu,-24.7147,-47.8742,3536208,10,Registro
353625,Março/2020,157.0,6,6,0,0.0,Parisi,-20.3034,-50.0163,3536257,13,São José do Rio Preto
353630,Março/2020,4012.0,145,73,72,1.83,Patrocínio Paulista,-20.6384,-47.2801,3536307,6,Franca
353640,Março/2020,1501.0,24,36,-12,-0.79,Paulicéia,-21.3153,-51.8321,3536406,9,Presidente Prudente
353650,Março/2020,42604.0,1676,2236,-560,-1.3,Paulínia,-22.7542,-47.1488,3536505,5,Campinas
353657,Março/2020,305.0,3,0,3,0.99,Paulistânia,-22.5768,-49.4008,3536570,4,Bauru
353660,Março/2020,603.0,6,4,2,0.33,Paulo de Faria,-20.0296,-49.4,3536604,13,São José do Rio Preto
353670,Março/2020,11337.0,673,309,364,3.32,Pederneiras,-22.3511,-48.7781,3536703,4,Bauru
353680,Março/2020,918.0,29,24,5,0.55,Pedra Bela,-22.7902,-46.4455,3536802,5,Campinas
353690,Março/2020,224.0,4,2,2,0.9,Pedranópolis,-20.2474,-50.1129,3536901,13,São José do Rio Preto
353700,Março/2020,3038.0,48,81,-33,-1.07,Pedregulho,-20.2535,-47.4775,3537008,6,Franca
353710,Março/2020,12523.0,574,534,40,0.32,Pedreira,-22.7413,-46.8948,3537107,5,Campinas
353715,Março/2020,365.0,1,11,-10,-2.67,Pedrinhas Paulista,-22.8174,-50.7933,3537156,8,Marília
353720,Março/2020,619.0,11,22,-11,-1.75,Pedro de Toledo,-24.2764,-47.2354,3537206,10,Registro
353730,Março/2020,14689.0,619,539,80,0.55,Penápolis,-21.4148,-50.0769,3537305,2,Araçatuba
353740,Março/2020,4982.0,384,112,272,5.77,Pereira Barreto,-20.6368,-51.1123,3537404,2,Araçatuba
353750,Março/2020,2495.0,74,66,8,0.32,Pereiras,-23.0804,-47.972,3537503,16,Sorocaba
353760,Março/2020,7840.0,184,372,-188,-2.34,Peruíbe,-24.312,-47.0012,3537602,12,Santos
353770,Março/2020,1242.0,28,21,7,0.57,Piacatu,-21.5921,-50.6003,3537701,2,Araçatuba
353780,Março/2020,6814.0,165,192,-27,-0.39,Piedade,-23.7139,-47.4256,3537800,16,Sorocaba
353790,Março/2020,5779.0,180,163,17,0.3,Pilar do Sul,-23.8077,-47.7222,3537909,16,Sorocaba
353800,Março/2020,33146.0,1231,1188,43,0.13,Pindamonhangaba,-22.9246,-45.4613,3538006,14,São José dos Campos
353810,Março/2020,2685.0,101,66,35,1.32,Pindorama,-21.1853,-48.9086,3538105,13,São José do Rio Preto
353820,Março/2020,2294.0,46,71,-25,-1.08,Pinhalzinho,-22.7811,-46.5897,3538204,5,Campinas
353830,Março/2020,300.0,10,8,2,0.67,Piquerobi,-21.8747,-51.7282,3538303,9,Presidente Prudente
353850,Março/2020,1143.0,26,85,-59,-4.91,Piquete,-22.6069,-45.1869,3538501,14,São José dos Campos
353860,Março/2020,4096.0,167,206,-39,-0.94,Piracaia,-23.0525,-46.3594,3538600,5,Campinas
353870,Março/2020,116635.0,4255,4290,-35,-0.03,Piracicaba,-22.7338,-47.6476,3538709,5,Campinas
353880,Março/2020,5265.0,166,187,-21,-0.4,Piraju,-23.1981,-49.3803,3538808,7,Itapeva
353890,Março/2020,3665.0,134,149,-15,-0.41,Pirajuí,-21.999,-49.4608,3538907,4,Bauru
353900,Março/2020,2423.0,120,45,75,3.19,Pirangi,-21.0886,-48.6607,3539004,3,Barretos
353910,Março/2020,1777.0,85,110,-25,-1.39,Pirapora do Bom Jesus,-23.3965,-46.9991,3539103,15,São Paulo
353920,Março/2020,4182.0,138,166,-28,-0.67,Pirapozinho,-22.2711,-51.4976,3539202,9,Presidente Prudente
353930,Março/2020,17360.0,786,601,185,1.08,Pirassununga,-21.996,-47.4257,3539301,5,Campinas
353940,Março/2020,1753.0,47,95,-48,-2.67,Piratininga,-22.4142,-49.1339,3539400,4,Bauru
353950,Março/2020,8039.0,785,239,546,7.29,Pitangueiras,-21.0132,-48.221,3539509,11,Ribeirão Preto
353960,Março/2020,2397.0,162,51,111,4.86,Planalto,-21.0342,-49.933,3539608,13,São José do Rio Preto
353970,Março/2020,299.0,5,1,4,1.36,Platina,-22.6371,-50.2104,3539707,8,Marília
353980,Março/2020,23528.0,912,1158,-246,-1.03,Poá,-23.5333,-46.3473,3539806,15,São Paulo
353990,Março/2020,1216.0,99,47,52,4.47,Poloni,-20.7829,-49.8258,3539905,13,São José do Rio Preto
354000,Março/2020,7798.0,112,91,21,0.27,Pompéia,-22.107,-50.176,3540002,8,Marília
354010,Março/2020,262.0,31,10,21,8.71,Pongaí,-21.7396,-49.3604,3540101,4,Bauru
354020,Março/2020,10546.0,473,259,214,2.07,Pontal,-21.0216,-48.0423,3540200,11,Ribeirão Preto
354025,Março/2020,137.0,2,2,0,0.0,Pontalinda,-20.4396,-50.5258,3540259,13,São José do Rio Preto
354030,Março/2020,438.0,9,3,6,1.39,Pontes Gestal,-20.1727,-49.7064,3540309,13,São José do Rio Preto
354040,Março/2020,329.0,9,2,7,2.17,Populina,-19.9453,-50.538,3540408,13,São José do Rio Preto
354050,Março/2020,1406.0,35,35,0,0.0,Porangaba,-23.1761,-48.1195,3540507,16,Sorocaba
354060,Março/2020,14618.0,456,560,-104,-0.71,Porto Feliz,-23.2093,-47.5251,3540606,16,Sorocaba
354070,Março/2020,14380.0,568,537,31,0.22,Porto Ferreira,-21.8498,-47.487,3540705,1,São Carlos
354075,Março/2020,964.0,75,50,25,2.66,Potim,-22.8343,-45.2552,3540754,14,São José dos Campos
354080,Março/2020,4172.0,159,112,47,1.14,Potirendaba,-21.0428,-49.3815,3540804,13,São José do Rio Preto
354085,Março/2020,58.0,2,2,0,0.0,Pracinha,-21.8496,-51.0868,3540853,9,Presidente Prudente
354090,Março/2020,7483.0,385,243,142,1.93,Pradópolis,-21.3626,-48.0679,3540903,11,Ribeirão Preto
354100,Março/2020,40785.0,1238,1800,-562,-1.36,Praia Grande,-24.0084,-46.4121,3541000,12,Santos
354105,Março/2020,1061.0,28,31,-3,-0.28,Pratânia,-22.8112,-48.6636,3541059,16,Sorocaba
354110,Março/2020,563.0,4,4,0,0.0,Presidente Alves,-22.0999,-49.4381,3541109,4,Bauru
354120,Março/2020,3206.0,47,49,-2,-0.06,Presidente Bernardes,-22.0082,-51.5565,3541208,9,Presidente Prudente
354130,Março/2020,4461.0,157,206,-49,-1.09,Presidente Epitácio,-21.7651,-52.1111,3541307,9,Presidente Prudente
354140,Março/2020,61333.0,1902,2303,-401,-0.65,Presidente Prudente,-22.1207,-51.3925,3541406,9,Presidente Prudente
354150,Março/2020,4975.0,219,173,46,0.93,Presidente Venceslau,-21.8732,-51.8447,3541505,9,Presidente Prudente
354160,Março/2020,7684.0,184,226,-42,-0.54,Promissão,-21.5356,-49.8599,3541604,4,Bauru
354165,Março/2020,545.0,4,18,-14,-2.5,Quadra,-23.2993,-48.0547,3541653,16,Sorocaba
354170,Março/2020,3981.0,378,80,298,8.09,Quatá,-22.2456,-50.6966,3541703,8,Marília
354180,Março/2020,2677.0,9,24,-15,-0.56,Queiroz,-21.7969,-50.2415,3541802,8,Marília
354190,Março/2020,1086.0,25,77,-52,-4.57,Queluz,-22.5312,-44.7781,3541901,14,São José dos Campos
354200,Março/2020,1304.0,46,17,29,2.27,Quintana,-22.0692,-50.307,3542008,8,Marília
354210,Março/2020,2360.0,68,58,10,0.43,Rafard,-23.0105,-47.5318,3542107,5,Campinas
354220,Março/2020,5991.0,164,167,-3,-0.05,Rancharia,-22.2269,-50.893,3542206,9,Presidente Prudente
354230,Março/2020,-1773.0,343,321,22,-1.23,Redenção da Serra,-23.2638,-45.5422,3542305,14,São José dos Campos
354240,Março/2020,4064.0,144,211,-67,-1.62,Regente Feijó,-22.2181,-51.3055,3542404,9,Presidente Prudente
354250,Março/2020,850.0,11,13,-2,-0.23,Reginópolis,-21.8914,-49.2268,3542503,4,Bauru
354260,Março/2020,11657.0,282,381,-99,-0.84,Registro,-24.4979,-47.8449,3542602,10,Registro
354270,Março/2020,1618.0,76,61,15,0.94,Restinga,-20.6056,-47.4833,3542701,6,Franca
354280,Março/2020,324.0,16,9,7,2.21,Ribeira,-24.6517,-49.0044,3542800,7,Itapeva
354290,Março/2020,1828.0,107,36,71,4.04,Ribeirão Bonito,-22.0685,-48.182,3542909,1,São Carlos
354300,Março/2020,2996.0,38,51,-13,-0.43,Ribeirão Branco,-24.2206,-48.7635,3543006,7,Itapeva
354310,Março/2020,551.0,10,10,0,0.0,Ribeirão Corrente,-20.4579,-47.5904,3543105,6,Franca
354320,Março/2020,631.0,2,16,-14,-2.17,Ribeirão do Sul,-22.789,-49.933,3543204,8,Marília
354323,Março/2020,97.0,2,1,1,1.04,Ribeirão dos Índios,-21.8382,-51.6103,3543238,9,Presidente Prudente
354325,Março/2020,301.0,6,3,3,1.01,Ribeirão Grande,-24.1011,-48.3679,3543253,7,Itapeva
354330,Março/2020,18721.0,593,873,-280,-1.47,Ribeirão Pires,-23.7067,-46.4058,3543303,15,São Paulo
354340,Março/2020,220598.0,8909,10632,-1723,-0.78,Ribeirão Preto,-21.1699,-47.8099,3543402,11,Ribeirão Preto
354350,Março/2020,420.0,46,9,37,9.66,Riversul,-23.829,-49.429,3543501,7,Itapeva
354360,Março/2020,791.0,54,28,26,3.4,Rifaina,-20.0803,-47.4291,3543600,6,Franca
354370,Março/2020,1443.0,70,46,24,1.69,Rincão,-21.5894,-48.0728,3543709,1,São Carlos
354380,Março/2020,1548.0,46,46,0,0.0,Rinópolis,-21.7284,-50.7239,3543808,8,Marília
354390,Março/2020,59911.0,2268,2365,-97,-0.16,Rio Claro,-22.3984,-47.5546,3543907,5,Campinas
354400,Março/2020,8766.0,268,240,28,0.32,Rio das Pedras,-22.8417,-47.6047,3544004,5,Campinas
354410,Março/2020,2560.0,120,86,34,1.35,Rio Grande da Serra,-23.7437,-46.3971,3544103,15,São Paulo
354420,Março/2020,581.0,20,7,13,2.29,Riolândia,-19.9868,-49.6836,3544202,13,São José do Rio Preto
354425,Março/2020,1642.0,35,52,-17,-1.02,Rosana,-22.5782,-53.0603,3544251,9,Presidente Prudente
354430,Março/2020,1858.0,74,109,-35,-1.85,Roseira,-22.8938,-45.307,3544301,14,São José dos Campos
354440,Março/2020,518.0,8,4,4,0.78,Rubiácea,-21.3006,-50.7296,3544400,2,Araçatuba
354450,Março/2020,382.0,9,10,-1,-0.26,Rubinéia,-20.1759,-51.007,3544509,13,São José do Rio Preto
354460,Março/2020,340.0,7,4,3,0.89,Sabino,-21.4593,-49.5755,3544608,4,Bauru
354470,Março/2020,116.0,2,3,-1,-0.85,Sagres,-21.8823,-50.9594,3544707,9,Presidente Prudente
354480,Março/2020,551.0,10,27,-17,-2.99,Sales,-21.3427,-49.4897,3544806,13,São José do Rio Preto
354490,Março/2020,2225.0,62,201,-139,-5.88,Sales Oliveira,-20.7696,-47.8369,3544905,6,Franca
354500,Março/2020,1819.0,46,45,1,0.06,Salesópolis,-23.5288,-45.8465,3545001,15,São Paulo
354510,Março/2020,258.0,21,6,15,6.17,Salmourão,-21.6267,-50.8614,3545100,9,Presidente Prudente
354515,Março/2020,1375.0,88,65,23,1.7,Saltinho,-22.8442,-47.6754,3545159,5,Campinas
354520,Março/2020,31346.0,924,1163,-239,-0.76,Salto,-23.1996,-47.2931,3545209,16,Sorocaba
354530,Março/2020,5234.0,193,223,-30,-0.57,Salto de Pirapora,-23.6474,-47.5743,3545308,16,Sorocaba
354540,Março/2020,1432.0,19,16,3,0.21,Salto Grande,-22.8894,-49.9831,3545407,8,Marília
354550,Março/2020,1604.0,16,13,3,0.19,Sandovalina,-22.4551,-51.7648,3545506,9,Presidente Prudente
354560,Março/2020,4514.0,121,261,-140,-3.01,Santa Adélia,-21.2427,-48.8063,3545605,13,São José do Rio Preto
354570,Março/2020,2857.0,67,53,14,0.49,Santa Albertina,-20.0311,-50.7297,3545704,13,São José do Rio Preto
354580,Março/2020,46329.0,1845,1813,32,0.07,Santa Bárbara d'Oeste,-22.7553,-47.4143,3545803,5,Campinas
354600,Março/2020,2076.0,48,67,-19,-0.91,Santa Branca,-23.3933,-45.8875,3546009,14,São José dos Campos
354610,Março/2020,753.0,41,78,-37,-4.68,Santa Clara d'Oeste,-20.09,-50.9491,3546108,13,São José do Rio Preto
354620,Março/2020,990.0,25,25,0,0.0,Santa Cruz da Conceição,-22.1405,-47.4512,3546207,5,Campinas
354625,Março/2020,393.0,8,4,4,1.03,Santa Cruz da Esperança,-21.2951,-47.4304,3546256,11,Ribeirão Preto
354630,Março/2020,6145.0,512,115,397,6.91,Santa Cruz das Palmeiras,-21.8235,-47.24800000000001,3546306,5,Campinas
354640,Março/2020,13747.0,279,456,-177,-1.27,Santa Cruz do Rio Pardo,-22.8988,-49.6354,3546405,8,Marília
354650,Março/2020,301.0,20,36,-16,-5.05,Santa Ernestina,-21.4618,-48.3953,3546504,1,São Carlos
354660,Março/2020,6818.0,281,432,-151,-2.17,Santa Fé do Sul,-20.2083,-50.932,3546603,13,São José do Rio Preto
354670,Março/2020,8300.0,211,240,-29,-0.35,Santa Gertrudes,-22.4572,-47.5272,3546702,5,Campinas
354680,Março/2020,9887.0,314,376,-62,-0.62,Santa Isabel,-23.3172,-46.2237,3546801,15,São Paulo
354690,Março/2020,624.0,4,19,-15,-2.35,Santa Lúcia,-21.685,-48.0885,3546900,1,São Carlos
354700,Março/2020,1190.0,21,56,-35,-2.86,Santa Maria da Serra,-22.5661,-48.1593,3547007,5,Campinas
354710,Março/2020,174.0,6,0,6,3.57,Santa Mercedes,-21.3495,-51.7564,3547106,9,Presidente Prudente
354720,Março/2020,71.0,0,0,0,0.0,Santana da Ponte Pensa,-20.2523,-50.8014,3547205,13,São José do Rio Preto
354730,Março/2020,48134.0,1681,2559,-878,-1.79,Santana de Parnaíba,-23.4439,-46.9178,3547304,15,São Paulo
354740,Março/2020,123.0,3,3,0,0.0,Santa Rita d'Oeste,-20.1414,-50.8358,3547403,13,São José do Rio Preto
354750,Março/2020,5907.0,488,2254,-1766,-23.02,Santa Rita do Passa Quatro,-21.7083,-47.478,3547502,1,São Carlos
354760,Março/2020,4331.0,126,122,4,0.09,Santa Rosa de Viterbo,-21.4776,-47.3622,3547601,11,Ribeirão Preto
354765,Março/2020,109.0,2,0,2,1.87,Santa Salete,-20.2429,-50.6887,3547650,13,São José do Rio Preto
354770,Março/2020,2832.0,73,97,-24,-0.84,Santo Anastácio,-21.9747,-51.6527,3547700,9,Presidente Prudente
354780,Março/2020,200678.0,7582,10589,-3007,-1.48,Santo André,-23.6737,-46.5432,3547809,15,São Paulo
354790,Março/2020,773.0,31,33,-2,-0.26,Santo Antônio da Alegria,-21.0864,-47.1464,3547908,11,Ribeirão Preto
354800,Março/2020,6464.0,222,269,-47,-0.72,Santo Antônio de Posse,-22.6029,-46.9192,3548005,5,Campinas
354805,Março/2020,1120.0,14,14,0,0.0,Santo Antônio do Aracanguá,-20.9331,-50.49800000000001,3548054,2,Araçatuba
354810,Março/2020,1022.0,14,21,-7,-0.68,Santo Antônio do Jardim,-22.1121,-46.6845,3548104,5,Campinas
354820,Março/2020,1204.0,14,20,-6,-0.5,Santo Antônio do Pinhal,-22.827,-45.663,3548203,14,São José dos Campos
354830,Março/2020,94.0,2,1,1,1.08,Santo Expedito,-21.8467,-51.3929,3548302,9,Presidente Prudente
354840,Março/2020,307.0,56,34,22,7.72,Santópolis do Aguapeí,-21.6376,-50.5044,3548401,2,Araçatuba
354850,Março/2020,165812.0,3976,5104,-1128,-0.68,Santos,-23.9535,-46.335,3548500,12,Santos
354860,Março/2020,1490.0,30,48,-18,-1.19,São Bento do Sapucaí,-22.6837,-45.7287,3548609,14,São José dos Campos
354870,Março/2020,248006.0,9477,10602,-1125,-0.45,São Bernardo do Campo,-23.6914,-46.5646,3548708,15,São Paulo
354880,Março/2020,111018.0,4053,4416,-363,-0.33,São Caetano do Sul,-23.6229,-46.5548,3548807,15,São Paulo
354890,Março/2020,73227.0,2457,2929,-472,-0.64,São Carlos,-22.0174,-47.886,3548906,1,São Carlos
354900,Março/2020,68.0,6,2,4,6.25,São Francisco,-20.3623,-50.6952,3549003,13,São José do Rio Preto
354910,Março/2020,21736.0,716,734,-18,-0.08,São João da Boa Vista,-21.9707,-46.7944,3549102,5,Campinas
354920,Março/2020,96.0,3,1,2,2.13,São João das Duas Pontes,-20.3879,-50.3792,3549201,13,São José do Rio Preto
354925,Março/2020,143.0,49,2,47,48.96,São João de Iracema,-20.5111,-50.3561,3549250,2,Araçatuba
354930,Março/2020,93.0,9,4,5,5.68,São João do Pau d'Alho,-21.2662,-51.6672,3549300,9,Presidente Prudente
354940,Março/2020,12980.0,502,313,189,1.48,São Joaquim da Barra,-20.5812,-47.8593,3549409,6,Franca
354950,Março/2020,748.0,9,10,-1,-0.13,São José da Bela Vista,-20.5935,-47.6424,3549508,6,Franca
354960,Março/2020,508.0,0,1,-1,-0.2,São José do Barreiro,-22.6414,-44.5774,3549607,14,São José dos Campos
354970,Março/2020,13073.0,368,358,10,0.08,São José do Rio Pardo,-21.5953,-46.8873,3549706,5,Campinas
354980,Março/2020,137079.0,5259,6100,-841,-0.61,São José do Rio Preto,-20.8113,-49.3758,3549805,13,São José do Rio Preto
354990,Março/2020,177613.0,6153,8475,-2322,-1.29,São José dos Campos,-23.1896,-45.8841,3549904,14,São José dos Campos
354995,Março/2020,8385.0,274,310,-36,-0.43,São Lourenço da Serra,-23.8491,-46.9432,3549953,15,São Paulo
355000,Março/2020,1784.0,20,35,-15,-0.83,São Luiz do Paraitinga,-23.222,-45.3109,3550001,14,São José dos Campos
355010,Março/2020,7109.0,126,152,-26,-0.36,São Manuel,-22.7321,-48.5723,3550100,16,Sorocaba
355020,Março/2020,3716.0,115,153,-38,-1.01,São Miguel Arcanjo,-23.8782,-47.9935,3550209,16,Sorocaba
355030,Março/2020,4307462.0,205062,248497,-43435,-1.0,São Paulo,-23.5329,-46.6395,3550308,15,São Paulo
355040,Março/2020,6675.0,329,227,102,1.55,São Pedro,-22.5483,-47.9096,3550407,5,Campinas
355050,Março/2020,876.0,22,17,5,0.57,São Pedro do Turvo,-22.7453,-49.7428,3550506,8,Marília
355060,Março/2020,19049.0,715,979,-264,-1.37,São Roque,-23.5226,-47.1357,3550605,16,Sorocaba
355070,Março/2020,15305.0,447,871,-424,-2.7,São Sebastião,-23.7951,-45.4143,3550704,14,São José dos Campos
355080,Março/2020,2211.0,63,64,-1,-0.05,São Sebastião da Grama,-21.7041,-46.8208,3550803,5,Campinas
355090,Março/2020,3249.0,72,82,-10,-0.31,São Simão,-21.4732,-47.5518,3550902,11,Ribeirão Preto
355100,Março/2020,30195.0,862,1195,-333,-1.09,São Vicente,-23.9574,-46.3883,3551009,12,Santos
355110,Março/2020,1626.0,52,44,8,0.49,Sarapuí,-23.6397,-47.8249,3551108,16,Sorocaba
355120,Março/2020,364.0,3,8,-5,-1.36,Sarutaiá,-23.2721,-49.4763,3551207,7,Itapeva
355130,Março/2020,2194.0,57,22,35,1.62,Sebastianópolis do Sul,-20.6523,-49.925,3551306,13,São José do Rio Preto
355140,Março/2020,816.0,76,29,47,6.11,Serra Azul,-21.3074,-47.5602,3551405,11,Ribeirão Preto
355150,Março/2020,6541.0,403,363,40,0.62,Serrana,-21.2043,-47.5952,3551504,11,Ribeirão Preto
355160,Março/2020,6293.0,140,206,-66,-1.04,Serra Negra,-22.6139,-46.7033,3551603,5,Campinas
355170,Março/2020,40055.0,2200,2985,-785,-1.92,Sertãozinho,-21.1316,-47.9875,3551702,11,Ribeirão Preto
355180,Março/2020,1888.0,7,13,-6,-0.32,Sete Barras,-24.382,-47.9279,3551801,10,Registro
355190,Março/2020,2548.0,248,113,135,5.59,Severínia,-20.8108,-48.8054,3551900,3,Barretos
355200,Março/2020,701.0,6,22,-16,-2.23,Silveiras,-22.6638,-44.8522,3552007,14,São José dos Campos
355210,Março/2020,7807.0,233,453,-220,-2.74,Socorro,-22.5903,-46.5251,3552106,5,Campinas
355220,Março/2020,189153.0,8143,9722,-1579,-0.83,Sorocaba,-23.4969,-47.4451,3552205,16,Sorocaba
355230,Março/2020,1144.0,109,194,-85,-6.92,Sud Mennucci,-20.6872,-50.9238,3552304,2,Araçatuba
355240,Março/2020,53249.0,1890,2487,-597,-1.11,Sumaré,-22.8204,-47.2728,3552403,5,Campinas
355250,Março/2020,61567.0,2159,2588,-429,-0.69,Suzano,-23.5448,-46.3112,3552502,15,São Paulo
355255,Março/2020,1207.0,86,11,75,6.63,Suzanápolis,-20.4981,-51.0268,3552551,2,Araçatuba
355260,Março/2020,1478.0,36,47,-11,-0.74,Tabapuã,-20.9602,-49.0307,3552601,13,São José do Rio Preto
355270,Março/2020,2928.0,182,134,48,1.67,Tabatinga,-21.7239,-48.6896,3552700,1,São Carlos
355280,Março/2020,58509.0,2724,3548,-824,-1.39,Taboão da Serra,-23.6019,-46.7526,3552809,15,São Paulo
355290,Março/2020,375.0,21,14,7,1.9,Taciba,-22.3866,-51.2882,3552908,9,Presidente Prudente
355300,Março/2020,4179.0,201,179,22,0.53,Taguaí,-23.4452,-49.4024,3553005,7,Itapeva
355310,Março/2020,439.0,11,17,-6,-1.35,Taiaçu,-21.1431,-48.5112,3553104,3,Barretos
355320,Março/2020,731.0,14,8,6,0.83,Taiúva,-21.1223,-48.4528,3553203,3,Barretos
355330,Março/2020,4688.0,102,199,-97,-2.03,Tambaú,-21.7029,-47.2703,3553302,5,Campinas
355340,Março/2020,4955.0,222,223,-1,-0.02,Tanabi,-20.6228,-49.6563,3553401,13,São José do Rio Preto
355350,Março/2020,824.0,14,18,-4,-0.48,Tapiraí,-23.9612,-47.5062,3553500,16,Sorocaba
355360,Março/2020,2467.0,44,26,18,0.73,Tapiratiba,-21.4713,-46.7448,3553609,5,Campinas
355365,Março/2020,377.0,4,5,-1,-0.26,Taquaral,-21.0737,-48.4126,3553658,11,Ribeirão Preto
355370,Março/2020,9316.0,332,404,-72,-0.77,Taquaritinga,-21.4049,-48.5103,3553708,1,São Carlos
355380,Março/2020,4250.0,136,169,-33,-0.77,Taquarituba,-23.5307,-49.24100000000001,3553807,7,Itapeva
355385,Março/2020,1304.0,30,28,2,0.15,Taquarivaí,-23.9211,-48.6948,3553856,7,Itapeva
355390,Março/2020,1283.0,35,31,4,0.31,Tarabai,-22.3016,-51.5621,3553906,9,Presidente Prudente
355395,Março/2020,5280.0,435,332,103,1.99,Tarumã,-22.7429,-50.5786,3553955,8,Marília
355400,Março/2020,26507.0,813,804,9,0.03,Tatuí,-23.3487,-47.8461,3554003,16,Sorocaba
355410,Março/2020,75744.0,2606,3488,-882,-1.15,Taubaté,-23.0104,-45.5593,3554102,14,São José dos Campos
355420,Março/2020,833.0,25,44,-19,-2.23,Tejupá,-23.3425,-49.3722,3554201,7,Itapeva
355430,Março/2020,2600.0,67,68,-1,-0.04,Teodoro Sampaio,-22.5299,-52.1682,3554300,9,Presidente Prudente
355440,Março/2020,1053.0,252,54,198,23.16,Terra Roxa,-20.787,-48.3314,3554409,3,Barretos
355450,Março/2020,14168.0,456,418,38,0.27,Tietê,-23.1101,-47.7164,3554508,16,Sorocaba
355460,Março/2020,257.0,12,19,-7,-2.65,Timburi,-23.2057,-49.6096,3554607,8,Marília
355465,Março/2020,241.0,2,4,-2,-0.82,Torre de Pedra,-23.2462,-48.1955,3554656,16,Sorocaba
355470,Março/2020,2071.0,50,63,-13,-0.62,Torrinha,-22.4237,-48.1731,3554706,5,Campinas
355475,Março/2020,392.0,26,6,20,5.38,Trabiju,-22.0388,-48.3342,3554755,1,São Carlos
355480,Março/2020,4729.0,122,123,-1,-0.02,Tremembé,-22.9571,-45.5475,3554805,14,São José dos Campos
355490,Março/2020,373.0,21,14,7,1.91,Três Fronteiras,-20.2344,-50.8905,3554904,13,São José do Rio Preto
355495,Março/2020,688.0,25,14,11,1.62,Tuiuti,-22.8193,-46.6937,3554953,5,Campinas
355500,Março/2020,14371.0,488,554,-66,-0.46,Tupã,-21.9335,-50.5191,3555000,8,Marília
355510,Março/2020,1952.0,201,51,150,8.32,Tupi Paulista,-21.3825,-51.575,3555109,9,Presidente Prudente
355520,Março/2020,109.0,1,8,-7,-6.03,Turiúba,-20.9428,-50.1135,3555208,2,Araçatuba
355530,Março/2020,133.0,0,0,0,0.0,Turmalina,-20.0486,-50.4792,3555307,13,São José do Rio Preto
355535,Março/2020,1387.0,197,23,174,14.34,Ubarana,-21.165,-49.7198,3555356,13,São José do Rio Preto
355540,Março/2020,17285.0,531,1224,-693,-3.85,Ubatuba,-23.4332,-45.0834,3555406,14,São José dos Campos
355550,Março/2020,1366.0,21,11,10,0.74,Ubirajara,-22.5272,-49.6613,3555505,4,Bauru
355560,Março/2020,845.0,38,78,-40,-4.52,Uchoa,-20.9511,-49.1713,3555604,13,São José do Rio Preto
355570,Março/2020,162.0,18,6,12,8.0,União Paulista,-20.8862,-49.9025,3555703,13,São José do Rio Preto
355580,Março/2020,1025.0,39,26,13,1.28,Urânia,-20.2455,-50.6455,3555802,13,São José do Rio Preto
355590,Março/2020,89.0,1,0,1,1.14,Uru,-21.7866,-49.2848,3555901,4,Bauru
355600,Março/2020,2834.0,140,90,50,1.8,Urupês,-21.2032,-49.2931,3556008,13,São José do Rio Preto
355610,Março/2020,2724.0,264,109,155,6.03,Valentim Gentil,-20.4217,-50.0889,3556107,13,São José do Rio Preto
355620,Março/2020,45787.0,1498,1774,-276,-0.6,Valinhos,-22.9698,-46.9974,3556206,5,Campinas
355630,Março/2020,5824.0,851,194,657,12.72,Valparaíso,-21.2229,-50.8699,3556305,2,Araçatuba
355635,Março/2020,961.0,41,38,3,0.31,Vargem,-22.887,-46.4124,3556354,5,Campinas
355640,Março/2020,6714.0,272,254,18,0.27,Vargem Grande do Sul,-21.8322,-46.8913,3556404,5,Campinas
355645,Março/2020,10746.0,510,483,27,0.25,Vargem Grande Paulista,-23.5993,-47.022,3556453,15,São Paulo
355650,Março/2020,16539.0,684,589,95,0.58,Várzea Paulista,-23.2136,-46.8234,3556503,5,Campinas
355660,Março/2020,879.0,31,28,3,0.34,Vera Cruz,-22.2183,-49.8207,3556602,8,Marília
355670,Março/2020,38052.0,1411,1612,-201,-0.53,Vinhedo,-23.0302,-46.9833,3556701,5,Campinas
355680,Março/2020,2417.0,238,87,151,6.66,Viradouro,-20.8734,-48.293,3556800,3,Barretos
355690,Março/2020,4715.0,790,79,711,17.76,Vista Alegre do Alto,-21.1692,-48.6284,3556909,3,Barretos
355695,Março/2020,82.0,4,2,2,2.5,Vitória Brasil,-20.1956,-50.4875,3556958,13,São José do Rio Preto
355700,Março/2020,17678.0,638,945,-307,-1.71,Votorantim,-23.5446,-47.4388,3557006,16,Sorocaba
355710,Março/2020,24880.0,988,929,59,0.24,Votuporanga,-20.4237,-49.9781,3557105,13,São José do Rio Preto
355715,Março/2020,356.0,4,8,-4,-1.11,Zacarias,-21.0506,-50.0552,3557154,13,São José do Rio Preto
355720,Março/2020,1399.0,125,53,72,5.43,Chavantes,-23.0366,-49.7096,3557204,8,Marília
355730,Março/2020,1968.0,41,63,-22,-1.11,Estiva Gerbi,-22.2713,-46.9481,3557303,5,Campinas
350010,Abril/2020,9202.0,335,487,-152,-1.62,Adamantina,-21.682,-51.0737,3500105,9,Presidente Prudente
350020,Abril/2020,647.0,14,17,-3,-0.46,Adolfo,-21.2325,-49.6451,3500204,13,São José do Rio Preto
350030,Abril/2020,7200.0,122,228,-106,-1.45,Aguaí,-22.0572,-46.9735,3500303,5,Campinas
350040,Abril/2020,780.0,20,17,3,0.39,Águas da Prata,-21.9319,-46.7176,3500402,5,Campinas
350050,Abril/2020,4664.0,39,274,-235,-4.8,Águas de Lindóia,-22.4733,-46.6314,3500501,5,Campinas
350055,Abril/2020,1222.0,16,47,-31,-2.47,Águas de Santa Bárbara,-22.8812,-49.2421,3500550,16,Sorocaba
350060,Abril/2020,967.0,11,27,-16,-1.63,Águas de São Pedro,-22.5977,-47.8734,3500600,5,Campinas
350070,Abril/2020,7645.0,118,148,-30,-0.39,Agudos,-22.4694,-48.9863,3500709,4,Bauru
350075,Abril/2020,654.0,11,25,-14,-2.1,Alambari,-23.5503,-47.898,3500758,16,Sorocaba
350080,Abril/2020,883.0,5,14,-9,-1.01,Alfredo Marcondes,-21.9527,-51.414,3500808,9,Presidente Prudente
350090,Abril/2020,745.0,8,5,3,0.4,Altair,-20.5242,-49.0571,3500907,3,Barretos
350100,Abril/2020,3081.0,25,69,-44,-1.41,Altinópolis,-21.0214,-47.3712,3501004,11,Ribeirão Preto
350110,Abril/2020,566.0,103,13,90,18.91,Alto Alegre,-21.5811,-50.168,3501103,2,Araçatuba
350115,Abril/2020,6365.0,42,69,-27,-0.42,Alumínio,-23.5306,-47.2546,3501152,16,Sorocaba
350120,Abril/2020,495.0,0,5,-5,-1.0,Álvares Florence,-20.3203,-49.9141,3501202,13,São José do Rio Preto
350130,Abril/2020,2764.0,28,56,-28,-1.0,Álvares Machado,-22.0764,-51.4722,3501301,9,Presidente Prudente
350140,Abril/2020,198.0,1,2,-1,-0.5,Álvaro de Carvalho,-22.0841,-49.719,3501400,8,Marília
350150,Abril/2020,344.0,2,5,-3,-0.86,Alvinlândia,-22.4435,-49.7623,3501509,8,Marília
350160,Abril/2020,70203.0,1030,3120,-2090,-2.89,Americana,-22.7374,-47.3331,3501608,5,Campinas
350170,Abril/2020,9877.0,137,304,-167,-1.66,Américo Brasiliense,-21.7288,-48.1147,3501707,1,São Carlos
350180,Abril/2020,281.0,2,6,-4,-1.4,Américo de Campos,-20.2985,-49.7359,3501806,13,São José do Rio Preto
350190,Abril/2020,24227.0,367,649,-282,-1.15,Amparo,-22.7088,-46.772,3501905,5,Campinas
350200,Abril/2020,1092.0,10,18,-8,-0.73,Analândia,-22.1289,-47.6619,3502002,5,Campinas
350210,Abril/2020,14653.0,407,442,-35,-0.24,Andradina,-20.8948,-51.3786,3502101,2,Araçatuba
350220,Abril/2020,5432.0,79,103,-24,-0.44,Angatuba,-23.4917,-48.4139,3502200,7,Itapeva
350230,Abril/2020,678.0,7,25,-18,-2.59,Anhembi,-22.793000000000006,-48.1336,3502309,16,Sorocaba
350240,Abril/2020,218.0,1,0,1,0.46,Anhumas,-22.2934,-51.3895,3502408,9,Presidente Prudente
350250,Abril/2020,9327.0,52,833,-781,-7.73,Aparecida,-22.8495,-45.2325,3502507,14,São José dos Campos
350260,Abril/2020,458.0,1,8,-7,-1.51,Aparecida d'Oeste,-20.4487,-50.8835,3502606,13,São José do Rio Preto
350270,Abril/2020,4012.0,35,200,-165,-3.95,Apiaí,-24.5108,-48.8443,3502705,7,Itapeva
350275,Abril/2020,8943.0,124,434,-310,-3.35,Araçariguama,-23.4366,-47.0608,3502754,16,Sorocaba
350280,Abril/2020,48233.0,820,2108,-1288,-2.6,Araçatuba,-21.2076,-50.4401,3502804,2,Araçatuba
350290,Abril/2020,4733.0,75,237,-162,-3.31,Araçoiaba da Serra,-23.5029,-47.6166,3502903,16,Sorocaba
350300,Abril/2020,827.0,87,30,57,7.4,Aramina,-20.0882,-47.7873,3503000,6,Franca
350310,Abril/2020,831.0,5,9,-4,-0.48,Arandu,-23.1386,-49.0487,3503109,7,Itapeva
350315,Abril/2020,107.0,0,0,0,0.0,Arapeí,-22.6717,-44.4441,3503158,14,São José dos Campos
350320,Abril/2020,74056.0,1394,2646,-1252,-1.66,Araraquara,-21.7845,-48.178,3503208,1,São Carlos
350330,Abril/2020,34014.0,1123,1247,-124,-0.36,Araras,-22.3572,-47.3842,3503307,5,Campinas
350335,Abril/2020,139.0,0,2,-2,-1.42,Arco-Íris,-21.7728,-50.466,3503356,8,Marília
350340,Abril/2020,1578.0,25,33,-8,-0.5,Arealva,-22.031,-48.9135,3503406,4,Bauru
350350,Abril/2020,584.0,7,12,-5,-0.85,Areias,-22.5786,-44.6992,3503505,14,São José dos Campos
350360,Abril/2020,1200.0,150,51,99,8.99,Areiópolis,-22.6672,-48.6681,3503604,16,Sorocaba
350370,Abril/2020,3005.0,70,112,-42,-1.38,Ariranha,-21.1872,-48.7904,3503703,13,São José do Rio Preto
350380,Abril/2020,7674.0,329,340,-11,-0.14,Artur Nogueira,-22.5727,-47.1727,3503802,5,Campinas
350390,Abril/2020,24807.0,280,894,-614,-2.42,Arujá,-23.3965,-46.32,3503901,15,São Paulo
350395,Abril/2020,50.0,1,0,1,2.04,Aspásia,-20.16,-50.728,3503950,13,São José do Rio Preto
350400,Abril/2020,19454.0,282,699,-417,-2.1,Assis,-22.66,-50.4183,3504008,8,Marília
350410,Abril/2020,40186.0,397,1676,-1279,-3.08,Atibaia,-23.1171,-46.5563,3504107,5,Campinas
350420,Abril/2020,2137.0,18,80,-62,-2.82,Auriflama,-20.6836,-50.5572,3504206,2,Araçatuba
350430,Abril/2020,1526.0,95,59,36,2.42,Avaí,-22.1514,-49.3356,3504305,4,Bauru
350440,Abril/2020,1963.0,38,254,-216,-9.91,Avanhandava,-21.4584,-49.9509,3504404,2,Araçatuba
350450,Abril/2020,18940.0,286,772,-486,-2.5,Avaré,-23.1067,-48.9251,3504503,16,Sorocaba
350460,Abril/2020,2750.0,84,118,-34,-1.22,Bady Bassitt,-20.9197,-49.4385,3504602,13,São José do Rio Preto
350470,Abril/2020,749.0,4,1,3,0.4,Balbinos,-21.8963,-49.3619,3504701,4,Bauru
350480,Abril/2020,1210.0,11,71,-60,-4.72,Bálsamo,-20.7348,-49.5865,3504800,13,São José do Rio Preto
350490,Abril/2020,1182.0,11,25,-14,-1.17,Bananal,-22.6819,-44.3281,3504909,14,São José dos Campos
350500,Abril/2020,332.0,3,10,-7,-2.06,Barão de Antonina,-23.6284,-49.5634,3505005,7,Itapeva
350510,Abril/2020,665.0,32,20,12,1.84,Barbosa,-21.2657,-49.9518,3505104,2,Araçatuba
350520,Abril/2020,8562.0,138,235,-97,-1.12,Bariri,-22.073,-48.7438,3505203,4,Bauru
350530,Abril/2020,10860.0,900,282,618,6.03,Barra Bonita,-22.4909,-48.5583,3505302,4,Bauru
350535,Abril/2020,451.0,19,22,-3,-0.66,Barra do Chapéu,-24.4722,-49.0238,3505351,7,Itapeva
350540,Abril/2020,281.0,12,15,-3,-1.06,Barra do Turvo,-24.759,-48.5013,3505401,10,Registro
350550,Abril/2020,29778.0,775,1003,-228,-0.76,Barretos,-20.5531,-48.5698,3505500,3,Barretos
350560,Abril/2020,2759.0,210,438,-228,-7.63,Barrinha,-21.1864,-48.1636,3505609,11,Ribeirão Preto
350570,Abril/2020,266096.0,7560,11933,-4373,-1.62,Barueri,-23.5057,-46.879,3505708,15,São Paulo
350580,Abril/2020,6308.0,80,162,-82,-1.28,Bastos,-21.921,-50.7357,3505807,8,Marília
350590,Abril/2020,15609.0,188,511,-323,-2.03,Batatais,-20.8929,-47.5921,3505906,6,Franca
350600,Abril/2020,118421.0,1428,4660,-3232,-2.66,Bauru,-22.3246,-49.0871,3506003,4,Bauru
350610,Abril/2020,20603.0,686,1037,-351,-1.68,Bebedouro,-20.9491,-48.4791,3506102,3,Barretos
350620,Abril/2020,981.0,34,10,24,2.51,Bento de Abreu,-21.2686,-50.81399999999999,3506201,2,Araçatuba
350630,Abril/2020,2328.0,74,54,20,0.87,Bernardino de Campos,-23.0164,-49.4679,3506300,8,Marília
350635,Abril/2020,11173.0,171,356,-185,-1.63,Bertioga,-23.8486,-46.1396,3506359,12,Santos
350640,Abril/2020,1151.0,18,41,-23,-1.96,Bilac,-21.404,-50.4746,3506409,2,Araçatuba
350650,Abril/2020,27404.0,551,2355,-1804,-6.18,Birigui,-21.291,-50.3432,3506508,2,Araçatuba
350660,Abril/2020,2710.0,42,70,-28,-1.02,Biritiba-Mirim,-23.5698,-46.0407,3506607,15,São Paulo
350670,Abril/2020,2185.0,42,52,-10,-0.46,Boa Esperança do Sul,-21.9918,-48.3906,3506706,1,São Carlos
350680,Abril/2020,3631.0,141,125,16,0.44,Bocaina,-22.1365,-48.523,3506805,4,Bauru
350690,Abril/2020,1928.0,43,20,23,1.21,Bofete,-23.1055,-48.2582,3506904,16,Sorocaba
350700,Abril/2020,19828.0,208,544,-336,-1.67,Boituva,-23.2855,-47.6786,3507001,16,Sorocaba
350710,Abril/2020,4745.0,64,195,-131,-2.69,Bom Jesus dos Perdões,-23.1356,-46.4675,3507100,5,Campinas
350715,Abril/2020,441.0,1,8,-7,-1.56,Bom Sucesso de Itararé,-24.3155,-49.1451,3507159,7,Itapeva
350720,Abril/2020,1051.0,81,9,72,7.35,Borá,-22.2696,-50.5409,3507209,8,Marília
350730,Abril/2020,1453.0,32,39,-7,-0.48,Boracéia,-22.1926,-48.7808,3507308,4,Bauru
350740,Abril/2020,2215.0,112,75,37,1.7,Borborema,-21.6214,-49.0741,3507407,1,São Carlos
350745,Abril/2020,737.0,3,22,-19,-2.51,Borebi,-22.5728,-48.9707,3507456,4,Bauru
350750,Abril/2020,37258.0,707,1268,-561,-1.48,Botucatu,-22.8837,-48.4437,3507506,16,Sorocaba
350760,Abril/2020,43513.0,763,2034,-1271,-2.84,Bragança Paulista,-22.9527,-46.5419,3507605,5,Campinas
350770,Abril/2020,449.0,10,32,-22,-4.67,Braúna,-21.499,-50.3175,3507704,2,Araçatuba
350775,Abril/2020,481.0,0,4,-4,-0.82,Brejo Alegre,-21.1651,-50.1861,3507753,2,Araçatuba
350780,Abril/2020,5453.0,123,260,-137,-2.45,Brodowski,-20.9845,-47.6572,3507803,11,Ribeirão Preto
350790,Abril/2020,7053.0,280,306,-26,-0.37,Brotas,-22.2795,-48.1251,3507902,5,Campinas
350800,Abril/2020,3893.0,82,112,-30,-0.76,Buri,-23.7977,-48.5958,3508009,7,Itapeva
350810,Abril/2020,3614.0,611,89,522,16.88,Buritama,-21.0661,-50.1475,3508108,2,Araçatuba
350820,Abril/2020,1885.0,22,135,-113,-5.66,Buritizal,-20.1911,-47.7096,3508207,6,Franca
350830,Abril/2020,629.0,4,16,-12,-1.87,Cabrália Paulista,-22.4576,-49.3393,3508306,4,Bauru
350840,Abril/2020,14556.0,184,557,-373,-2.5,Cabreúva,-23.3053,-47.1362,3508405,5,Campinas
350850,Abril/2020,21734.0,153,659,-506,-2.28,Caçapava,-23.0992,-45.7076,3508504,14,São José dos Campos
350860,Abril/2020,4345.0,43,67,-24,-0.55,Cachoeira Paulista,-22.6665,-45.0154,3508603,14,São José dos Campos
350870,Abril/2020,2127.0,34,35,-1,-0.05,Caconde,-21.528,-46.6437,3508702,5,Campinas
350880,Abril/2020,3367.0,161,175,-14,-0.41,Cafelândia,-21.8031,-49.6092,3508801,4,Bauru
350890,Abril/2020,134.0,5,4,1,0.75,Caiabu,-22.0127,-51.2394,3508900,9,Presidente Prudente
350900,Abril/2020,19403.0,375,779,-404,-2.04,Caieiras,-23.3607,-46.7397,3509007,15,São Paulo
350910,Abril/2020,237.0,2,1,1,0.42,Caiuá,-21.8322,-51.9969,3509106,9,Presidente Prudente
350920,Abril/2020,40626.0,825,1654,-829,-2.0,Cajamar,-23.355,-46.8781,3509205,15,São Paulo
350925,Abril/2020,5724.0,69,301,-232,-3.9,Cajati,-24.7324,-48.1223,3509254,10,Registro
350930,Abril/2020,998.0,24,22,2,0.2,Cajobi,-20.8773,-48.8063,3509304,3,Barretos
350940,Abril/2020,5031.0,89,109,-20,-0.4,Cajuru,-21.2749,-47.303,3509403,11,Ribeirão Preto
350945,Abril/2020,435.0,8,15,-7,-1.58,Campina do Monte Alegre,-23.5895,-48.4758,3509452,7,Itapeva
350950,Abril/2020,373750.0,5327,15141,-9814,-2.56,Campinas,-22.9053,-47.0659,3509502,5,Campinas
350960,Abril/2020,9897.0,59,275,-216,-2.14,Campo Limpo Paulista,-23.2078,-46.7889,3509601,5,Campinas
350970,Abril/2020,12279.0,91,595,-504,-3.94,Campos do Jordão,-22.7296,-45.5833,3509700,14,São José dos Campos
350980,Abril/2020,472.0,1,15,-14,-2.88,Campos Novos Paulista,-22.602,-49.9987,3509809,8,Marília
350990,Abril/2020,1120.0,23,22,1,0.09,Cananéia,-25.0144,-47.9341,3509908,10,Registro
350995,Abril/2020,615.0,5,22,-17,-2.69,Canas,-22.7003,-45.0521,3509957,14,São José dos Campos
351000,Abril/2020,5399.0,37,116,-79,-1.44,Cândido Mota,-22.7471,-50.3873,3510005,8,Marília
351010,Abril/2020,472.0,4,4,0,0.0,Cândido Rodrigues,-21.3275,-48.6327,3510104,1,São Carlos
351015,Abril/2020,275.0,3,6,-3,-1.08,Canitar,-23.004,-49.7839,3510153,8,Marília
351020,Abril/2020,6510.0,79,245,-166,-2.49,Capão Bonito,-24.0113,-48.3482,3510203,7,Itapeva
351030,Abril/2020,4380.0,238,181,57,1.32,Capela do Alto,-23.4685,-47.7388,3510302,16,Sorocaba
351040,Abril/2020,13006.0,167,482,-315,-2.36,Capivari,-22.9951,-47.5071,3510401,5,Campinas
351050,Abril/2020,20594.0,302,831,-529,-2.5,Caraguatatuba,-23.6125,-45.4125,3510500,14,São José dos Campos
351060,Abril/2020,30545.0,539,1237,-698,-2.23,Carapicuíba,-23.5235,-46.8407,3510609,15,São Paulo
351070,Abril/2020,990.0,14,17,-3,-0.3,Cardoso,-20.08,-49.9183,3510708,13,São José do Rio Preto
351080,Abril/2020,6596.0,107,179,-72,-1.08,Casa Branca,-21.7708,-47.0852,3510807,5,Campinas
351090,Abril/2020,254.0,1,2,-1,-0.39,Cássia dos Coqueiros,-21.2801,-47.1643,3510906,11,Ribeirão Preto
351100,Abril/2020,4125.0,87,83,4,0.1,Castilho,-20.8689,-51.4884,3511003,2,Araçatuba
351110,Abril/2020,34103.0,1701,1451,250,0.74,Catanduva,-21.1314,-48.977,3511102,13,São José do Rio Preto
351120,Abril/2020,545.0,78,20,58,11.91,Catiguá,-21.0519,-49.0616,3511201,13,São José do Rio Preto
351130,Abril/2020,4853.0,76,418,-342,-6.58,Cedral,-20.9009,-49.2664,3511300,13,São José do Rio Preto
351140,Abril/2020,3949.0,264,118,146,3.84,Cerqueira César,-23.038,-49.1655,3511409,16,Sorocaba
351150,Abril/2020,11469.0,149,421,-272,-2.32,Cerquilho,-23.1665,-47.7459,3511508,16,Sorocaba
351160,Abril/2020,2906.0,46,210,-164,-5.34,Cesário Lange,-23.226,-47.9545,3511607,16,Sorocaba
351170,Abril/2020,1962.0,173,75,98,5.26,Charqueada,-22.5096,-47.7755,3511706,5,Campinas
351190,Abril/2020,2503.0,54,12,42,1.71,Clementina,-21.5604,-50.4525,3511904,2,Araçatuba
351200,Abril/2020,5952.0,363,84,279,4.92,Colina,-20.7114,-48.5387,3512001,3,Barretos
351210,Abril/2020,2916.0,291,637,-346,-10.61,Colômbia,-20.1768,-48.6865,3512100,3,Barretos
351220,Abril/2020,4580.0,80,267,-187,-3.92,Conchal,-22.3375,-47.1729,3512209,5,Campinas
351230,Abril/2020,3285.0,37,81,-44,-1.32,Conchas,-23.0154,-48.0134,3512308,16,Sorocaba
351240,Abril/2020,9171.0,95,532,-437,-4.55,Cordeirópolis,-22.4778,-47.4519,3512407,5,Campinas
351250,Abril/2020,737.0,8,22,-14,-1.86,Coroados,-21.3521,-50.2859,3512506,2,Araçatuba
351260,Abril/2020,483.0,6,16,-10,-2.03,Coronel Macedo,-23.6261,-49.31,3512605,7,Itapeva
351270,Abril/2020,1123.0,33,24,9,0.81,Corumbataí,-22.2213,-47.6215,3512704,5,Campinas
351280,Abril/2020,10246.0,290,315,-25,-0.24,Cosmópolis,-22.6419,-47.1926,3512803,5,Campinas
351290,Abril/2020,2018.0,6,194,-188,-8.52,Cosmorama,-20.4755,-49.7827,3512902,13,São José do Rio Preto
351300,Abril/2020,71312.0,1506,2990,-1484,-2.04,Cotia,-23.6022,-46.919,3513009,15,São Paulo
351310,Abril/2020,8158.0,247,216,31,0.38,Cravinhos,-21.338,-47.7324,3513108,11,Ribeirão Preto
351320,Abril/2020,1660.0,16,19,-3,-0.18,Cristais Paulista,-20.4036,-47.4209,3513207,6,Franca
351330,Abril/2020,187.0,1,2,-1,-0.53,Cruzália,-22.7373,-50.7909,3513306,8,Marília
351340,Abril/2020,15099.0,115,252,-137,-0.9,Cruzeiro,-22.5728,-44.969,3513405,14,São José dos Campos
351350,Abril/2020,24072.0,225,1115,-890,-3.57,Cubatão,-23.8911,-46.424,3513504,12,Santos
351360,Abril/2020,2211.0,14,43,-29,-1.29,Cunha,-23.0731,-44.9576,3513603,14,São José dos Campos
351370,Abril/2020,10063.0,350,225,125,1.26,Descalvado,-21.9002,-47.6181,3513702,1,São Carlos
351380,Abril/2020,79984.0,755,3373,-2618,-3.17,Diadema,-23.6813,-46.6205,3513801,15,São Paulo
351385,Abril/2020,166.0,0,0,0,0.0,Dirce Reis,-20.4642,-50.6073,3513850,13,São José do Rio Preto
351390,Abril/2020,1854.0,25,53,-28,-1.49,Divinolândia,-21.6637,-46.7361,3513900,5,Campinas
351400,Abril/2020,970.0,101,22,79,8.87,Dobrada,-21.5155,-48.3935,3514007,1,São Carlos
351410,Abril/2020,5452.0,328,222,106,1.98,Dois Córregos,-22.3673,-48.3819,3514106,4,Bauru
351420,Abril/2020,92.0,0,2,-2,-2.13,Dolcinópolis,-20.124,-50.5149,3514205,13,São José do Rio Preto
351430,Abril/2020,2835.0,49,63,-14,-0.49,Dourado,-22.1044,-48.3178,3514304,1,São Carlos
351440,Abril/2020,10729.0,215,443,-228,-2.08,Dracena,-21.4843,-51.535,3514403,9,Presidente Prudente
351450,Abril/2020,2292.0,22,70,-48,-2.05,Duartina,-22.4146,-49.4084,3514502,4,Bauru
351460,Abril/2020,2013.0,8,48,-40,-1.95,Dumont,-21.2324,-47.9756,3514601,11,Ribeirão Preto
351470,Abril/2020,627.0,2,6,-4,-0.63,Echaporã,-22.4326,-50.2038,3514700,8,Marília
351480,Abril/2020,1524.0,5,19,-14,-0.91,Eldorado,-24.5281,-48.1141,3514809,10,Registro
351490,Abril/2020,4959.0,244,189,55,1.12,Elias Fausto,-23.0428,-47.3682,3514908,5,Campinas
351492,Abril/2020,591.0,18,3,15,2.6,Elisiário,-21.1678,-49.1146,3514924,13,São José do Rio Preto
351495,Abril/2020,137.0,8,4,4,3.01,Embaúba,-20.9796,-48.8325,3514957,3,Barretos
351500,Abril/2020,39608.0,620,1684,-1064,-2.62,Embu das Artes,-23.6437,-46.8579,3515004,15,São Paulo
351510,Abril/2020,6936.0,84,216,-132,-1.87,Embu-Guaçu,-23.8297,-46.8136,3515103,15,São Paulo
351512,Abril/2020,141.0,4,1,3,2.17,Emilianópolis,-21.8314,-51.4832,3515129,9,Presidente Prudente
351515,Abril/2020,3624.0,52,95,-43,-1.17,Engenheiro Coelho,-22.4836,-47.21100000000001,3515152,5,Campinas
351518,Abril/2020,12172.0,135,442,-307,-2.46,Espírito Santo do Pinhal,-22.1909,-46.7477,3515186,5,Campinas
351519,Abril/2020,547.0,2,1,1,0.18,Espírito Santo do Turvo,-22.6925,-49.4341,3515194,8,Marília
351520,Abril/2020,2979.0,20,86,-66,-2.17,Estrela d'Oeste,-20.2875,-50.4049,3515202,13,São José do Rio Preto
351530,Abril/2020,93.0,0,0,0,0.0,Estrela do Norte,-22.4859,-51.6632,3515301,9,Presidente Prudente
351535,Abril/2020,325.0,16,18,-2,-0.61,Euclides da Cunha Paulista,-22.5545,-52.5928,3515350,9,Presidente Prudente
351540,Abril/2020,3201.0,46,84,-38,-1.17,Fartura,-23.3916,-49.5124,3515400,7,Itapeva
351550,Abril/2020,15799.0,327,737,-410,-2.53,Fernandópolis,-20.2806,-50.2471,3515509,13,São José do Rio Preto
351560,Abril/2020,1402.0,17,26,-9,-0.64,Fernando Prestes,-21.2661,-48.6874,3515608,1,São Carlos
351565,Abril/2020,177.0,1,5,-4,-2.21,Fernão,-22.3607,-49.5187,3515657,8,Marília
351570,Abril/2020,17035.0,184,647,-463,-2.65,Ferraz de Vasconcelos,-23.5411,-46.371,3515707,15,São Paulo
351580,Abril/2020,76.0,5,34,-29,-27.62,Flora Rica,-21.6727,-51.3821,3515806,9,Presidente Prudente
351590,Abril/2020,277.0,0,2,-2,-0.72,Floreal,-20.6752,-50.1513,3515905,13,São José do Rio Preto
351600,Abril/2020,1051.0,37,74,-37,-3.4,Flórida Paulista,-21.6127,-51.1724,3516002,9,Presidente Prudente
351610,Abril/2020,229.0,0,6,-6,-2.55,Florínia,-22.868,-50.6814,3516101,8,Marília
351620,Abril/2020,83584.0,1220,7102,-5882,-6.57,Franca,-20.5352,-47.4039,3516200,6,Franca
351630,Abril/2020,6681.0,115,198,-83,-1.23,Francisco Morato,-23.2792,-46.7448,3516309,15,São Paulo
351640,Abril/2020,13380.0,269,598,-329,-2.4,Franco da Rocha,-23.3229,-46.729,3516408,15,São Paulo
351650,Abril/2020,956.0,1,29,-28,-2.85,Gabriel Monteiro,-21.5294,-50.5573,3516507,2,Araçatuba
351660,Abril/2020,1110.0,23,22,1,0.09,Gália,-22.2918,-49.5504,3516606,8,Marília
351670,Abril/2020,8729.0,107,215,-108,-1.22,Garça,-22.2125,-49.6546,3516705,8,Marília
351680,Abril/2020,206.0,14,24,-10,-4.63,Gastão Vidigal,-20.7948,-50.1912,3516804,2,Araçatuba
351685,Abril/2020,3986.0,33,84,-51,-1.26,Gavião Peixoto,-21.8367,-48.4957,3516853,1,São Carlos
351690,Abril/2020,1396.0,67,38,29,2.12,General Salgado,-20.6485,-50.364,3516903,2,Araçatuba
351700,Abril/2020,854.0,9,29,-20,-2.29,Getulina,-21.7961,-49.9312,3517000,4,Bauru
351710,Abril/2020,849.0,14,23,-9,-1.05,Glicério,-21.3812,-50.2123,3517109,2,Araçatuba
351720,Abril/2020,1156.0,18,63,-45,-3.75,Guaiçara,-21.6195,-49.8013,3517208,4,Bauru
351730,Abril/2020,370.0,3,2,1,0.27,Guaimbê,-21.9091,-49.8986,3517307,4,Bauru
351740,Abril/2020,14708.0,788,426,362,2.52,Guaíra,-20.3196,-48.312,3517406,3,Barretos
351750,Abril/2020,4514.0,130,91,39,0.87,Guapiaçu,-20.7959,-49.2172,3517505,13,São José do Rio Preto
351760,Abril/2020,2092.0,8,56,-48,-2.24,Guapiara,-24.1892,-48.5295,3517604,7,Itapeva
351770,Abril/2020,3007.0,73,209,-136,-4.33,Guará,-20.4302,-47.8236,3517703,6,Franca
351780,Abril/2020,1365.0,5,15,-10,-0.73,Guaraçaí,-21.0292,-51.2119,3517802,2,Araçatuba
351790,Abril/2020,1933.0,74,27,47,2.49,Guaraci,-20.4977,-48.9391,3517901,3,Barretos
351800,Abril/2020,145.0,8,5,3,2.11,Guarani d'Oeste,-20.0746,-50.3411,3518008,13,São José do Rio Preto
351810,Abril/2020,821.0,8,14,-6,-0.73,Guarantã,-21.8942,-49.5914,3518107,4,Bauru
351820,Abril/2020,6753.0,137,152,-15,-0.22,Guararapes,-21.2544,-50.6453,3518206,2,Araçatuba
351830,Abril/2020,7055.0,69,290,-221,-3.04,Guararema,-23.4112,-46.0369,3518305,15,São Paulo
351840,Abril/2020,27538.0,258,945,-687,-2.43,Guaratinguetá,-22.8075,-45.1938,3518404,14,São José dos Campos
351850,Abril/2020,2276.0,5,40,-35,-1.51,Guareí,-23.3714,-48.1837,3518503,16,Sorocaba
351860,Abril/2020,6954.0,466,621,-155,-2.18,Guariba,-21.3594,-48.2316,3518602,11,Ribeirão Preto
351870,Abril/2020,39705.0,341,1107,-766,-1.89,Guarujá,-23.9888,-46.258,3518701,12,Santos
351880,Abril/2020,312413.0,4144,16507,-12363,-3.81,Guarulhos,-23.4538,-46.5333,3518800,15,São Paulo
351885,Abril/2020,1114.0,88,69,19,1.74,Guatapará,-21.4944,-48.0356,3518859,11,Ribeirão Preto
351890,Abril/2020,445.0,77,6,71,18.98,Guzolândia,-20.6467,-50.6645,3518909,2,Araçatuba
351900,Abril/2020,1332.0,34,22,12,0.91,Herculândia,-22.0038,-50.3907,3519006,8,Marília
351905,Abril/2020,9676.0,398,321,77,0.8,Holambra,-22.6405,-47.0487,3519055,5,Campinas
351907,Abril/2020,41943.0,516,1575,-1059,-2.46,Hortolândia,-22.8529,-47.2143,3519071,5,Campinas
351910,Abril/2020,2815.0,99,78,21,0.75,Iacanga,-21.8896,-49.03100000000001,3519105,4,Bauru
351920,Abril/2020,749.0,21,13,8,1.08,Iacri,-21.8572,-50.6932,3519204,8,Marília
351925,Abril/2020,1459.0,15,18,-3,-0.21,Iaras,-22.8682,-49.1634,3519253,16,Sorocaba
351930,Abril/2020,6228.0,272,173,99,1.62,Ibaté,-21.9584,-47.9882,3519303,1,São Carlos
351940,Abril/2020,1689.0,27,107,-80,-4.52,Ibirá,-21.083,-49.2448,3519402,13,São José do Rio Preto
351950,Abril/2020,694.0,77,27,50,7.76,Ibirarema,-22.8185,-50.0739,3519501,8,Marília
351960,Abril/2020,14930.0,263,731,-468,-3.04,Ibitinga,-21.7562,-48.8319,3519600,1,São Carlos
351970,Abril/2020,14127.0,171,285,-114,-0.8,Ibiúna,-23.6596,-47.223,3519709,16,Sorocaba
351980,Abril/2020,1151.0,40,26,14,1.23,Icém,-20.3391,-49.1915,3519808,13,São José do Rio Preto
351990,Abril/2020,652.0,6,24,-18,-2.69,Iepê,-22.6602,-51.0779,3519907,9,Presidente Prudente
352000,Abril/2020,1843.0,183,45,138,8.09,Igaraçu do Tietê,-22.509,-48.5597,3520004,4,Bauru
352010,Abril/2020,5612.0,153,372,-219,-3.76,Igarapava,-20.0407,-47.7466,3520103,6,Franca
352020,Abril/2020,1181.0,7,12,-5,-0.42,Igaratá,-23.2037,-46.157,3520202,14,São José dos Campos
352030,Abril/2020,2845.0,22,72,-50,-1.73,Iguape,-24.699,-47.5537,3520301,10,Registro
352040,Abril/2020,6303.0,109,482,-373,-5.59,Ilhabela,-23.7785,-45.3552,3520400,14,São José dos Campos
352042,Abril/2020,1050.0,6,35,-29,-2.69,Ilha Comprida,-24.7307,-47.5383,3520426,10,Registro
352044,Abril/2020,3531.0,85,166,-81,-2.24,Ilha Solteira,-20.4326,-51.3426,3520442,2,Araçatuba
352050,Abril/2020,72364.0,1069,2993,-1924,-2.59,Indaiatuba,-23.0816,-47.2101,3520509,5,Campinas
352060,Abril/2020,386.0,7,13,-6,-1.53,Indiana,-22.1738,-51.2555,3520608,9,Presidente Prudente
352070,Abril/2020,292.0,5,5,0,0.0,Indiaporã,-19.979,-50.2909,3520707,13,São José do Rio Preto
352080,Abril/2020,647.0,1,13,-12,-1.82,Inúbia Paulista,-21.7695,-50.9633,3520806,9,Presidente Prudente
352090,Abril/2020,3168.0,157,115,42,1.34,Ipaussu,-23.0575,-49.6279,3520905,8,Marília
352100,Abril/2020,4386.0,77,229,-152,-3.35,Iperó,-23.3513,-47.6927,3521002,16,Sorocaba
352110,Abril/2020,1948.0,19,24,-5,-0.26,Ipeúna,-22.4355,-47.7151,3521101,5,Campinas
352115,Abril/2020,975.0,7,27,-20,-2.01,Ipiguá,-20.6557,-49.3842,3521150,13,São José do Rio Preto
352120,Abril/2020,191.0,0,4,-4,-2.05,Iporanga,-24.5847,-48.5971,3521200,7,Itapeva
352130,Abril/2020,1986.0,63,36,27,1.38,Ipuã,-20.4438,-48.0129,3521309,6,Franca
352140,Abril/2020,7298.0,191,321,-130,-1.75,Iracemápolis,-22.5832,-47.523,3521408,5,Campinas
352150,Abril/2020,814.0,14,27,-13,-1.57,Irapuã,-21.2768,-49.4164,3521507,13,São José do Rio Preto
352160,Abril/2020,432.0,8,6,2,0.47,Irapuru,-21.5684,-51.3472,3521606,9,Presidente Prudente
352170,Abril/2020,2243.0,40,84,-44,-1.92,Itaberá,-23.8638,-49.14,3521705,7,Itapeva
352180,Abril/2020,3901.0,103,112,-9,-0.23,Itaí,-23.4213,-49.092,3521804,7,Itapeva
352190,Abril/2020,3066.0,60,116,-56,-1.79,Itajobi,-21.3123,-49.0629,3521903,13,São José do Rio Preto
352200,Abril/2020,604.0,7,13,-6,-0.98,Itaju,-21.9857,-48.8116,3522000,4,Bauru
352210,Abril/2020,10018.0,120,288,-168,-1.65,Itanhaém,-24.1736,-46.788,3522109,12,Santos
352215,Abril/2020,301.0,1,1,0,0.0,Itaóca,-24.6393,-48.8413,3522158,7,Itapeva
352220,Abril/2020,19841.0,311,708,-397,-1.96,Itapecerica da Serra,-23.7161,-46.8572,3522208,15,São Paulo
352230,Abril/2020,32181.0,530,1265,-735,-2.23,Itapetininga,-23.5886,-48.0483,3522307,16,Sorocaba
352240,Abril/2020,16817.0,193,556,-363,-2.11,Itapeva,-23.9788,-48.8764,3522406,7,Itapeva
352250,Abril/2020,30250.0,571,1113,-542,-1.76,Itapevi,-23.5488,-46.9327,3522505,15,São Paulo
352260,Abril/2020,21709.0,444,727,-283,-1.29,Itapira,-22.4357,-46.8224,3522604,5,Campinas
352265,Abril/2020,518.0,1,4,-3,-0.58,Itapirapuã Paulista,-24.572,-49.1661,3522653,7,Itapeva
352270,Abril/2020,9858.0,178,321,-143,-1.43,Itápolis,-21.5942,-48.8149,3522703,1,São Carlos
352280,Abril/2020,1491.0,28,60,-32,-2.1,Itaporanga,-23.7043,-49.4819,3522802,7,Itapeva
352290,Abril/2020,4238.0,107,131,-24,-0.56,Itapuí,-22.2324,-48.7197,3522901,4,Bauru
352300,Abril/2020,446.0,27,18,9,2.06,Itapura,-20.6419,-51.5063,3523008,2,Araçatuba
352310,Abril/2020,38462.0,550,2315,-1765,-4.39,Itaquaquecetuba,-23.4835,-46.3457,3523107,15,São Paulo
352320,Abril/2020,6839.0,45,250,-205,-2.91,Itararé,-24.1085,-49.3352,3523206,7,Itapeva
352330,Abril/2020,1159.0,10,24,-14,-1.19,Itariri,-24.2834,-47.1736,3523305,10,Registro
352340,Abril/2020,34966.0,538,1510,-972,-2.7,Itatiba,-23.0035,-46.8464,3523404,5,Campinas
352350,Abril/2020,2349.0,21,74,-53,-2.21,Itatinga,-23.1047,-48.6157,3523503,16,Sorocaba
352360,Abril/2020,4569.0,63,75,-12,-0.26,Itirapina,-22.2562,-47.8166,3523602,5,Campinas
352370,Abril/2020,709.0,4,11,-7,-0.98,Itirapuã,-20.6416,-47.2194,3523701,6,Franca
352380,Abril/2020,728.0,4,9,-5,-0.68,Itobi,-21.7309,-46.9743,3523800,5,Campinas
352390,Abril/2020,49921.0,535,1885,-1350,-2.63,Itu,-23.2544,-47.2927,3523909,16,Sorocaba
352400,Abril/2020,27647.0,627,1321,-694,-2.45,Itupeva,-23.1526,-47.0593,3524006,5,Campinas
352410,Abril/2020,6232.0,58,173,-115,-1.81,Ituverava,-20.3355,-47.7902,3524105,6,Franca
352420,Abril/2020,742.0,50,16,34,4.8,Jaborandi,-20.6884,-48.4112,3524204,3,Barretos
352430,Abril/2020,20298.0,217,839,-622,-2.97,Jaboticabal,-21.252,-48.3252,3524303,11,Ribeirão Preto
352440,Abril/2020,43957.0,596,1749,-1153,-2.56,Jacareí,-23.2983,-45.9658,3524402,14,São José dos Campos
352450,Abril/2020,2908.0,27,70,-43,-1.46,Jaci,-20.8805,-49.5797,3524501,13,São José do Rio Preto
352460,Abril/2020,2619.0,40,59,-19,-0.72,Jacupiranga,-24.6963,-48.0064,3524600,10,Registro
352470,Abril/2020,31691.0,436,957,-521,-1.62,Jaguariúna,-22.7037,-46.9851,3524709,5,Campinas
352480,Abril/2020,10349.0,90,246,-156,-1.49,Jales,-20.2672,-50.5494,3524808,13,São José do Rio Preto
352490,Abril/2020,2909.0,31,138,-107,-3.55,Jambeiro,-23.2522,-45.6942,3524907,14,São José dos Campos
352500,Abril/2020,16634.0,304,633,-329,-1.94,Jandira,-23.5275,-46.9023,3525003,15,São Paulo
352510,Abril/2020,9096.0,141,329,-188,-2.02,Jardinópolis,-21.0176,-47.7606,3525102,11,Ribeirão Preto
352520,Abril/2020,8882.0,94,438,-344,-3.73,Jarinu,-23.1039,-46.728,3525201,5,Campinas
352530,Abril/2020,32906.0,624,2328,-1704,-4.92,Jaú,-22.2936,-48.5592,3525300,4,Bauru
352540,Abril/2020,658.0,49,27,22,3.46,Jeriquara,-20.3116,-47.5918,3525409,6,Franca
352550,Abril/2020,1870.0,20,105,-85,-4.35,Joanópolis,-22.927,-46.2741,3525508,5,Campinas
352560,Abril/2020,330.0,2,4,-2,-0.6,João Ramalho,-22.2473,-50.7694,3525607,8,Marília
352570,Abril/2020,9375.0,173,359,-186,-1.95,José Bonifácio,-21.0551,-49.6892,3525706,13,São José do Rio Preto
352580,Abril/2020,193.0,3,3,0,0.0,Júlio Mesquita,-22.0112,-49.7873,3525805,8,Marília
352585,Abril/2020,1259.0,29,55,-26,-2.02,Jumirim,-23.0884,-47.7868,3525854,16,Sorocaba
352590,Abril/2020,158979.0,2914,6228,-3314,-2.04,Jundiaí,-23.1852,-46.8974,3525904,5,Campinas
352600,Abril/2020,5091.0,130,99,31,0.61,Junqueirópolis,-21.5103,-51.4342,3526001,9,Presidente Prudente
352610,Abril/2020,1595.0,10,52,-42,-2.57,Juquiá,-24.3101,-47.6426,3526100,10,Registro
352620,Abril/2020,3679.0,147,132,15,0.41,Juquitiba,-23.9244,-47.0653,3526209,15,São Paulo
352630,Abril/2020,707.0,5,9,-4,-0.56,Lagoinha,-23.0846,-45.1944,3526308,14,São José dos Campos
352640,Abril/2020,8610.0,116,457,-341,-3.81,Laranjal Paulista,-23.0506,-47.8375,3526407,16,Sorocaba
352650,Abril/2020,354.0,5,5,0,0.0,Lavínia,-21.1639,-51.0412,3526506,2,Araçatuba
352660,Abril/2020,465.0,1,12,-11,-2.31,Lavrinhas,-22.57,-44.9024,3526605,14,São José dos Campos
352670,Abril/2020,19799.0,334,672,-338,-1.68,Leme,-22.1809,-47.3841,3526704,5,Campinas
352680,Abril/2020,19980.0,515,971,-456,-2.23,Lençóis Paulista,-22.6027,-48.8037,3526803,4,Bauru
352690,Abril/2020,75574.0,919,3462,-2543,-3.26,Limeira,-22.566,-47.397,3526902,5,Campinas
352700,Abril/2020,1635.0,22,52,-30,-1.8,Lindóia,-22.5226,-46.65,3527009,5,Campinas
352710,Abril/2020,24494.0,459,641,-182,-0.74,Lins,-21.6718,-49.7526,3527108,4,Bauru
352720,Abril/2020,14942.0,243,421,-178,-1.18,Lorena,-22.7334,-45.1197,3527207,14,São José dos Campos
352725,Abril/2020,78.0,0,2,-2,-2.5,Lourdes,-20.966,-50.2263,3527256,2,Araçatuba
352730,Abril/2020,15781.0,292,606,-314,-1.95,Louveira,-23.0856,-46.9484,3527306,5,Campinas
352740,Abril/2020,9302.0,521,328,193,2.12,Lucélia,-21.7182,-51.0215,3527405,9,Presidente Prudente
352750,Abril/2020,1052.0,2,2,0,0.0,Lucianópolis,-22.4294,-49.522,3527504,4,Bauru
352760,Abril/2020,5679.0,329,800,-471,-7.66,Luís Antônio,-21.55,-47.7801,3527603,11,Ribeirão Preto
352770,Abril/2020,573.0,2,9,-7,-1.21,Luiziânia,-21.6737,-50.3294,3527702,2,Araçatuba
352780,Abril/2020,546.0,3,7,-4,-0.73,Lupércio,-22.4146,-49.81800000000001,3527801,8,Marília
352790,Abril/2020,455.0,1,0,1,0.22,Lutécia,-22.3384,-50.394,3527900,8,Marília
352800,Abril/2020,3521.0,58,133,-75,-2.09,Macatuba,-22.5002,-48.7102,3528007,4,Bauru
352810,Abril/2020,1542.0,22,29,-7,-0.45,Macaubal,-20.8022,-49.9687,3528106,13,São José do Rio Preto
352820,Abril/2020,265.0,0,21,-21,-7.34,Macedônia,-20.1444,-50.1973,3528205,13,São José do Rio Preto
352830,Abril/2020,473.0,8,23,-15,-3.07,Magda,-20.6445,-50.2305,3528304,13,São José do Rio Preto
352840,Abril/2020,9210.0,170,354,-184,-1.96,Mairinque,-23.5398,-47.185,3528403,16,Sorocaba
352850,Abril/2020,12941.0,211,624,-413,-3.09,Mairiporã,-23.3171,-46.5897,3528502,15,São Paulo
352860,Abril/2020,1549.0,128,65,63,4.24,Manduri,-23.0056,-49.3202,3528601,16,Sorocaba
352870,Abril/2020,303.0,2,2,0,0.0,Marabá Paulista,-22.1068,-51.9617,3528700,9,Presidente Prudente
352880,Abril/2020,2765.0,27,77,-50,-1.78,Maracaí,-22.6149,-50.6713,3528809,8,Marília
352885,Abril/2020,1707.0,78,42,36,2.15,Marapoama,-21.2587,-49.13,3528858,13,São José do Rio Preto
352890,Abril/2020,138.0,3,1,2,1.47,Mariápolis,-21.7959,-51.1824,3528908,9,Presidente Prudente
352900,Abril/2020,64110.0,1133,2224,-1091,-1.67,Marília,-22.2171,-49.9501,3529005,8,Marília
352910,Abril/2020,147.0,0,0,0,0.0,Marinópolis,-20.4389,-50.8254,3529104,13,São José do Rio Preto
352920,Abril/2020,2175.0,63,39,24,1.12,Martinópolis,-22.1462,-51.1709,3529203,9,Presidente Prudente
352930,Abril/2020,25464.0,358,948,-590,-2.26,Matão,-21.6025,-48.364,3529302,1,São Carlos
352940,Abril/2020,59339.0,837,2784,-1947,-3.18,Mauá,-23.6677,-46.4613,3529401,15,São Paulo
352950,Abril/2020,2549.0,271,343,-72,-2.75,Mendonça,-21.1757,-49.5791,3529500,13,São José do Rio Preto
352960,Abril/2020,1856.0,16,72,-56,-2.93,Meridiano,-20.3579,-50.1811,3529609,13,São José do Rio Preto
352965,Abril/2020,61.0,1,0,1,1.67,Mesópolis,-19.9684,-50.6326,3529658,13,São José do Rio Preto
352970,Abril/2020,1950.0,40,170,-130,-6.25,Miguelópolis,-20.1796,-48.03100000000001,3529708,6,Franca
352980,Abril/2020,1278.0,53,55,-2,-0.16,Mineiros do Tietê,-22.412,-48.451,3529807,4,Bauru
352990,Abril/2020,2476.0,14,45,-31,-1.24,Miracatu,-24.2766,-47.4625,3529906,10,Registro
353000,Abril/2020,242.0,1,1,0,0.0,Mira Estrela,-19.9789,-50.139,3530003,13,São José do Rio Preto
353010,Abril/2020,3487.0,243,93,150,4.5,Mirandópolis,-21.1313,-51.1035,3530102,2,Araçatuba
353020,Abril/2020,2904.0,12,38,-26,-0.89,Mirante do Paranapanema,-22.2904,-51.9084,3530201,9,Presidente Prudente
353030,Abril/2020,14468.0,233,605,-372,-2.51,Mirassol,-20.8169,-49.5206,3530300,13,São José do Rio Preto
353040,Abril/2020,763.0,2,6,-4,-0.52,Mirassolândia,-20.6179,-49.4617,3530409,13,São José do Rio Preto
353050,Abril/2020,16715.0,203,410,-207,-1.22,Mococa,-21.4647,-47.0024,3530508,5,Campinas
353060,Abril/2020,95076.0,1538,4491,-2953,-3.01,Mogi das Cruzes,-23.5208,-46.1854,3530607,15,São Paulo
353070,Abril/2020,34645.0,613,1425,-812,-2.29,Mogi Guaçu,-22.3675,-46.9428,3530706,5,Campinas
353080,Abril/2020,28229.0,391,1062,-671,-2.32,Mogi Mirim,-22.4332,-46.9532,3530805,5,Campinas
353090,Abril/2020,522.0,2,21,-19,-3.51,Mombuca,-22.9285,-47.559,3530904,5,Campinas
353100,Abril/2020,592.0,1,17,-16,-2.63,Monções,-20.8509,-50.0975,3531001,13,São José do Rio Preto
353110,Abril/2020,6248.0,54,195,-141,-2.21,Mongaguá,-24.0809,-46.6265,3531100,12,Santos
353120,Abril/2020,962.0,14,59,-45,-4.47,Monte Alegre do Sul,-22.6817,-46.681,3531209,5,Campinas
353130,Abril/2020,12750.0,120,404,-284,-2.18,Monte Alto,-21.2655,-48.4971,3531308,11,Ribeirão Preto
353140,Abril/2020,3834.0,335,295,40,1.05,Monte Aprazível,-20.768,-49.7184,3531407,13,São José do Rio Preto
353150,Abril/2020,4213.0,34,74,-40,-0.94,Monte Azul Paulista,-20.9065,-48.6387,3531506,3,Barretos
353160,Abril/2020,482.0,15,3,12,2.55,Monte Castelo,-21.2981,-51.5679,3531605,9,Presidente Prudente
353170,Abril/2020,406.0,1,8,-7,-1.69,Monteiro Lobato,-22.9544,-45.8407,3531704,14,São José dos Campos
353180,Abril/2020,10314.0,172,312,-140,-1.34,Monte Mor,-22.945,-47.3122,3531803,5,Campinas
353190,Abril/2020,6898.0,146,280,-134,-1.91,Morro Agudo,-20.7288,-48.0581,3531902,6,Franca
353200,Abril/2020,4368.0,40,161,-121,-2.7,Morungaba,-22.8811,-46.7896,3532009,5,Campinas
353205,Abril/2020,668.0,8,8,0,0.0,Motuca,-21.5103,-48.1538,3532058,1,São Carlos
353210,Abril/2020,188.0,8,3,5,2.73,Murutinga do Sul,-20.9908,-51.2774,3532108,2,Araçatuba
353215,Abril/2020,168.0,2,1,1,0.6,Nantes,-22.6156,-51.24,3532157,9,Presidente Prudente
353220,Abril/2020,724.0,18,11,7,0.98,Narandiba,-22.4057,-51.5274,3532207,9,Presidente Prudente
353230,Abril/2020,682.0,6,8,-2,-0.29,Natividade da Serra,-23.3707,-45.4468,3532306,14,São José dos Campos
353240,Abril/2020,2166.0,26,121,-95,-4.2,Nazaré Paulista,-23.1747,-46.3983,3532405,5,Campinas
353250,Abril/2020,1405.0,22,110,-88,-5.89,Neves Paulista,-20.843000000000004,-49.6358,3532504,13,São José do Rio Preto
353260,Abril/2020,1706.0,18,52,-34,-1.95,Nhandeara,-20.6945,-50.0436,3532603,13,São José do Rio Preto
353270,Abril/2020,452.0,45,30,15,3.43,Nipoã,-20.9114,-49.7833,3532702,13,São José do Rio Preto
353280,Abril/2020,1357.0,31,39,-8,-0.59,Nova Aliança,-21.0156,-49.4986,3532801,13,São José do Rio Preto
353282,Abril/2020,1667.0,13,64,-51,-2.97,Nova Campina,-24.1224,-48.9022,3532827,7,Itapeva
353284,Abril/2020,58.0,0,0,0,0.0,Nova Canaã Paulista,-20.3836,-50.9483,3532843,13,São José do Rio Preto
353286,Abril/2020,65.0,1,0,1,1.56,Nova Castilho,-20.7615,-50.3477,3532868,2,Araçatuba
353290,Abril/2020,3028.0,66,34,32,1.07,Nova Europa,-21.7765,-48.5705,3532900,1,São Carlos
353300,Abril/2020,3268.0,72,88,-16,-0.49,Nova Granada,-20.5321,-49.3123,3533007,13,São José do Rio Preto
353310,Abril/2020,66.0,4,2,2,3.13,Nova Guataporanga,-21.332,-51.6447,3533106,9,Presidente Prudente
353320,Abril/2020,1662.0,44,30,14,0.85,Nova Independência,-21.1026,-51.4905,3533205,2,Araçatuba
353325,Abril/2020,493.0,31,6,25,5.34,Novais,-20.9893,-48.9141,3533254,13,São José do Rio Preto
353330,Abril/2020,130.0,1,4,-3,-2.26,Nova Luzitânia,-20.856,-50.2617,3533304,2,Araçatuba
353340,Abril/2020,18584.0,326,1128,-802,-4.14,Nova Odessa,-22.7832,-47.2941,3533403,5,Campinas
353350,Abril/2020,10672.0,528,547,-19,-0.18,Novo Horizonte,-21.4651,-49.2234,3533502,13,São José do Rio Preto
353360,Abril/2020,3196.0,74,56,18,0.57,Nuporanga,-20.7296,-47.7429,3533601,6,Franca
353370,Abril/2020,635.0,10,8,2,0.32,Ocauçu,-22.438,-49.922,3533700,8,Marília
353380,Abril/2020,161.0,1,4,-3,-1.83,Óleo,-22.9435,-49.3419,3533809,8,Marília
353390,Abril/2020,15057.0,396,672,-276,-1.8,Olímpia,-20.7366,-48.9106,3533908,3,Barretos
353400,Abril/2020,2186.0,22,24,-2,-0.09,Onda Verde,-20.6042,-49.2929,3534005,13,São José do Rio Preto
353410,Abril/2020,611.0,0,8,-8,-1.29,Oriente,-22.1549,-50.0971,3534104,8,Marília
353420,Abril/2020,3272.0,140,36,104,3.28,Orindiúva,-20.1861,-49.3464,3534203,13,São José do Rio Preto
353430,Abril/2020,10658.0,240,521,-281,-2.57,Orlândia,-20.7169,-47.8852,3534302,6,Franca
353440,Abril/2020,149664.0,2219,5881,-3662,-2.39,Osasco,-23.5324,-46.7916,3534401,15,São Paulo
353450,Abril/2020,205.0,2,3,-1,-0.49,Oscar Bressane,-22.3149,-50.2811,3534500,8,Marília
353460,Abril/2020,6677.0,83,268,-185,-2.7,Osvaldo Cruz,-21.7968,-50.8793,3534609,9,Presidente Prudente
353470,Abril/2020,24001.0,316,961,-645,-2.62,Ourinhos,-22.9797,-49.8697,3534708,8,Marília
353475,Abril/2020,1998.0,64,100,-36,-1.77,Ouroeste,-20.0061,-50.3768,3534757,13,São José do Rio Preto
353480,Abril/2020,652.0,26,20,6,0.93,Ouro Verde,-21.4872,-51.7024,3534807,9,Presidente Prudente
353490,Abril/2020,1702.0,50,42,8,0.47,Pacaembu,-21.5627,-51.2654,3534906,9,Presidente Prudente
353500,Abril/2020,3712.0,47,52,-5,-0.13,Palestina,-20.39,-49.4309,3535002,13,São José do Rio Preto
353510,Abril/2020,941.0,7,34,-27,-2.79,Palmares Paulista,-21.0854,-48.8037,3535101,13,São José do Rio Preto
353520,Abril/2020,830.0,10,13,-3,-0.36,Palmeira d'Oeste,-20.4148,-50.7632,3535200,13,São José do Rio Preto
353530,Abril/2020,3671.0,88,55,33,0.91,Palmital,-22.7858,-50.218,3535309,8,Marília
353540,Abril/2020,2638.0,61,87,-26,-0.98,Panorama,-21.354,-51.8562,3535408,9,Presidente Prudente
353550,Abril/2020,11918.0,657,208,449,3.91,Paraguaçu Paulista,-22.4114,-50.5732,3535507,8,Marília
353560,Abril/2020,1756.0,13,130,-117,-6.25,Paraibuna,-23.3872,-45.6639,3535606,14,São José dos Campos
353570,Abril/2020,2045.0,129,18,111,5.74,Paraíso,-21.0159,-48.7761,3535705,13,São José do Rio Preto
353580,Abril/2020,3965.0,135,135,0,0.0,Paranapanema,-23.3862,-48.7214,3535804,7,Itapeva
353590,Abril/2020,578.0,2,8,-6,-1.03,Paranapuã,-20.1048,-50.5886,3535903,13,São José do Rio Preto
353600,Abril/2020,3024.0,88,46,42,1.41,Parapuã,-21.7792,-50.7949,3536000,8,Marília
353610,Abril/2020,2111.0,12,73,-61,-2.81,Pardinho,-23.0841,-48.3679,3536109,16,Sorocaba
353620,Abril/2020,3014.0,49,107,-58,-1.89,Pariquera-Açu,-24.7147,-47.8742,3536208,10,Registro
353625,Abril/2020,136.0,1,22,-21,-13.38,Parisi,-20.3034,-50.0163,3536257,13,São José do Rio Preto
353630,Abril/2020,3956.0,62,118,-56,-1.4,Patrocínio Paulista,-20.6384,-47.2801,3536307,6,Franca
353640,Abril/2020,1761.0,302,42,260,17.32,Paulicéia,-21.3153,-51.8321,3536406,9,Presidente Prudente
353650,Abril/2020,41493.0,637,1748,-1111,-2.61,Paulínia,-22.7542,-47.1488,3536505,5,Campinas
353657,Abril/2020,302.0,0,3,-3,-0.98,Paulistânia,-22.5768,-49.4008,3536570,4,Bauru
353660,Abril/2020,616.0,15,2,13,2.16,Paulo de Faria,-20.0296,-49.4,3536604,13,São José do Rio Preto
353670,Abril/2020,10938.0,192,591,-399,-3.52,Pederneiras,-22.3511,-48.7781,3536703,4,Bauru
353680,Abril/2020,918.0,9,9,0,0.0,Pedra Bela,-22.7902,-46.4455,3536802,5,Campinas
353690,Abril/2020,215.0,4,13,-9,-4.02,Pedranópolis,-20.2474,-50.1129,3536901,13,São José do Rio Preto
353700,Abril/2020,3088.0,113,63,50,1.65,Pedregulho,-20.2535,-47.4775,3537008,6,Franca
353710,Abril/2020,11844.0,123,802,-679,-5.42,Pedreira,-22.7413,-46.8948,3537107,5,Campinas
353715,Abril/2020,356.0,1,10,-9,-2.47,Pedrinhas Paulista,-22.8174,-50.7933,3537156,8,Marília
353720,Abril/2020,617.0,9,11,-2,-0.32,Pedro de Toledo,-24.2764,-47.2354,3537206,10,Registro
353730,Abril/2020,14652.0,539,576,-37,-0.25,Penápolis,-21.4148,-50.0769,3537305,2,Araçatuba
353740,Abril/2020,4943.0,60,99,-39,-0.78,Pereira Barreto,-20.6368,-51.1123,3537404,2,Araçatuba
353750,Abril/2020,2515.0,83,63,20,0.8,Pereiras,-23.0804,-47.972,3537503,16,Sorocaba
353760,Abril/2020,7620.0,76,296,-220,-2.81,Peruíbe,-24.312,-47.0012,3537602,12,Santos
353770,Abril/2020,1233.0,3,12,-9,-0.72,Piacatu,-21.5921,-50.6003,3537701,2,Araçatuba
353780,Abril/2020,6652.0,67,229,-162,-2.38,Piedade,-23.7139,-47.4256,3537800,16,Sorocaba
353790,Abril/2020,5738.0,100,141,-41,-0.71,Pilar do Sul,-23.8077,-47.7222,3537909,16,Sorocaba
353800,Abril/2020,32646.0,419,919,-500,-1.51,Pindamonhangaba,-22.9246,-45.4613,3538006,14,São José dos Campos
353810,Abril/2020,2682.0,40,43,-3,-0.11,Pindorama,-21.1853,-48.9086,3538105,13,São José do Rio Preto
